,FIPS,NAME,STATE,longitude,latitude,precipitation
0,1001,Autauga,Alabama,-86.642749235,32.5349201866,518.581170287085
1,1003,Baldwin,Alabama,-87.7498400784,30.6609696648,547.0417828419172
2,1005,Barbour,Alabama,-85.3931969755,31.8696032448,504.3696717826669
3,1007,Bibb,Alabama,-87.1264391014,32.9986442965,549.148666908289
4,1009,Blount,Alabama,-86.5673709608,33.9808673856,587.0060781682485
5,1011,Bullock,Alabama,-85.7156972254,32.1005542205,582.5355075008088
6,1013,Butler,Alabama,-86.6802892154,31.7524339429,557.2533652264995
7,1015,Calhoun,Alabama,-85.8260308543,33.7714324565,517.224420515497
8,1017,Chambers,Alabama,-85.3920429513,32.9143722298,599.4932152571232
9,1019,Cherokee,Alabama,-85.6037937156,34.1759559677,561.1763471253594
10,1021,Chilton,Alabama,-86.718813672,32.847853212,544.652856467699
11,1023,Choctaw,Alabama,-88.2632012743,32.0196107831,577.0089090662786
12,1025,Clarke,Alabama,-87.8308098507,31.6766595802,557.175279706694
13,1027,Clay,Alabama,-85.8605470841,33.2690858673,572.3301754532259
14,1029,Cleburne,Alabama,-85.5187680028,33.6745577167,598.7442957173187
15,1031,Coffee,Alabama,-85.9882069262,31.4026271796,504.89352001781464
16,1033,Colbert,Alabama,-87.8049852867,34.7004337984,511.01736807497326
17,1035,Conecuh,Alabama,-86.9936742092,31.4292715445,575.2918372939023
18,1037,Coosa,Alabama,-86.2476592648,32.9362268304,589.381357794975
19,1039,Covington,Alabama,-86.4512425439,31.2484923988,545.0869745575286
20,1041,Crenshaw,Alabama,-86.3135388959,31.7315001844,527.8131767707736
21,1043,Cullman,Alabama,-86.8676194614,34.1319410705,503.1412486119631
22,1045,Dale,Alabama,-85.6110368183,31.4318270699,573.3481244734544
23,1047,Dallas,Alabama,-87.1064763258,32.325973709,586.750525157432
24,1049,DeKalb,Alabama,-85.8041426436,34.4597729557,584.5214730847623
25,1051,Elmore,Alabama,-86.1491465307,32.5966480504,558.1289924930195
26,1053,Escambia,Alabama,-87.1616198682,31.1261225461,598.44439241014
27,1055,Etowah,Alabama,-86.034762324,34.0452544,554.8981475305548
28,1057,Fayette,Alabama,-87.7388619701,33.7212061505,520.3323770532862
29,1059,Franklin,Alabama,-87.8438119782,34.4416706415,521.819536294974
30,1061,Geneva,Alabama,-85.8389848955,31.095016693,565.0125496584999
31,1063,Greene,Alabama,-87.9522309156,32.8531388427,583.013980076678
32,1065,Hale,Alabama,-87.6291176816,32.7626642246,560.8555086887154
33,1067,Henry,Alabama,-85.2414063367,31.5146944202,535.2948797658656
34,1069,Houston,Alabama,-85.3025273835,31.1531879718,586.8609939016641
35,1071,Jackson,Alabama,-85.9993005443,34.7794159964,550.449119524929
36,1073,Jefferson,Alabama,-86.8963982424,33.5543385118,548.7441542698217
37,1075,Lamar,Alabama,-88.0968988585,33.7792058021,551.3226160614746
38,1077,Lauderdale,Alabama,-87.6539980067,34.901372384,585.567455938563
39,1079,Lawrence,Alabama,-87.311044513,34.5216520166,593.8417178469765
40,1081,Lee,Alabama,-85.355562704,32.6011364841,517.1991094458583
41,1083,Limestone,Alabama,-86.9813747654,34.8100783219,524.2928569798811
42,1085,Lowndes,Alabama,-86.6501076967,32.1547500095,566.327367551601
43,1087,Macon,Alabama,-85.6926686622,32.3859736952,576.9751219126334
44,1089,Madison,Alabama,-86.5502065185,34.7630897031,512.8477622819373
45,1091,Marengo,Alabama,-87.7895192944,32.2476134122,559.7850455145522
46,1093,Marion,Alabama,-87.8871383639,34.1365496957,514.131803139719
47,1095,Marshall,Alabama,-86.306636969,34.3669621021,565.3837472450019
48,1097,Mobile,Alabama,-88.1975233535,30.6851516211,508.42028444657916
49,1099,Monroe,Alabama,-87.3654375115,31.5708340246,504.14454128325673
50,1101,Montgomery,Alabama,-86.2076142923,32.2202579876,598.1811872464674
51,1103,Morgan,Alabama,-86.8529215684,34.453472028,530.4654497510867
52,1105,Perry,Alabama,-87.2944007854,32.6384656558,548.6338504715069
53,1107,Pickens,Alabama,-88.0886925942,33.2808768859,507.6308156861599
54,1109,Pike,Alabama,-85.9409081483,31.8027084904,585.7935440180803
55,1111,Randolph,Alabama,-85.4590701568,33.2937873448,542.5497893364352
56,1113,Russell,Alabama,-85.1849624464,32.2883800156,579.3322832370443
57,1117,Shelby,Alabama,-86.6606484037,33.2642770248,519.4562541940887
58,1119,Sumter,Alabama,-88.1987896089,32.5910175308,563.2209663481898
59,1121,Talladega,Alabama,-86.1659036872,33.3800616097,595.6758307520482
60,1123,Tallapoosa,Alabama,-85.7975022448,32.8624049426,592.395196163415
61,1125,Tuscaloosa,Alabama,-87.525029952,33.2895498464,552.5455971345776
62,1127,Walker,Alabama,-87.2973573971,33.8033347429,545.3834853682623
63,1129,Washington,Alabama,-88.2078768076,31.4076037932,501.1097088296958
64,1131,Wilcox,Alabama,-87.3082017869,31.9892401922,573.7869118374961
65,1133,Winston,Alabama,-87.3736834128,34.1492251125,512.8464685234835
66,2050,Bethel,Alaska,-160.195267975,60.8490903436,125.72710603541799
67,2068,Denali,Alaska,-150.011714676,63.6716419513,134.07471480653248
68,2070,Dillingham,Alaska,-158.348270189,59.7139951133,193.36594759994517
69,2100,Haines,Alaska,-135.470092205,59.0758951471,146.677869402994
70,2158,Kusilvak,Alaska,-163.525464784,62.160012711,195.56699714600546
71,2170,Matanuska-Susitna,Alaska,-149.580200458,62.3046703274,127.51822040565352
72,2180,Nome,Alaska,-164.244322616,64.8354505226,109.5229570059378
73,2195,Petersburg,Alaska,-133.002459292,57.1140130761,167.0017672693101
74,60010,Eastern,American Samoa,-170.627332642,-14.2674550886,126.34709833343084
75,60020,Manu'a,American Samoa,-169.53673492,-14.2084357923,109.51641592195597
76,60050,Western,American Samoa,-170.784527256,-14.3355554126,136.42924951386325
77,4001,Apache,Arizona,-109.488828707,35.3955080611,19.094020630429654
78,4003,Cochise,Arizona,-109.751263137,31.8796370864,20.157526882139262
79,4005,Coconino,Arizona,-111.770512718,35.8386956734,27.843721477697454
80,4007,Gila,Arizona,-110.811737097,33.7997498678,18.69488545010718
81,4009,Graham,Arizona,-109.887451628,32.9326627045,8.48605133346721
82,4011,Greenlee,Arizona,-109.240355413,33.2154016682,12.237585852576126
83,4013,Maricopa,Arizona,-112.491486812,33.3489778227,0.8214092162756514
84,4015,Mohave,Arizona,-113.757910618,35.7040584995,156.23882563794209
85,4017,Navajo,Arizona,-110.321396004,35.3995733714,2.153022276342007
86,4019,Pima,Arizona,-111.789863499,32.097399026,4.719961483895717
87,4021,Pinal,Arizona,-111.344739896,32.9043665122,20.062605852082168
88,4025,Yavapai,Arizona,-112.553944833,34.5998564246,29.908851901634925
89,4027,Yuma,Arizona,-113.905618757,32.7696188927,139.3836044160098
90,5001,Arkansas,Arkansas,-91.3749047506,34.2908080523,567.4866062433659
91,5003,Ashley,Arkansas,-91.7684475565,33.1912219797,560.6429318430614
92,5005,Baxter,Arkansas,-92.3369721117,36.2871782318,547.0227634355475
93,5007,Benton,Arkansas,-94.2561015344,36.3387382969,557.3662389206179
94,5009,Boone,Arkansas,-93.0915633723,36.3085986469,589.3202136591808
95,5011,Bradley,Arkansas,-92.1624016443,33.4664224376,577.7206990015482
96,5013,Calhoun,Arkansas,-92.5030441645,33.5580341574,599.8217644185012
97,5015,Carroll,Arkansas,-93.5381811083,36.3410829938,541.7821421262464
98,5017,Chicot,Arkansas,-91.2939728213,33.2672553197,576.7527162232534
99,5019,Clark,Arkansas,-93.1763674899,34.0509558643,565.6964405948937
100,5021,Clay,Arkansas,-90.4173835629,36.3683942057,559.6685978844777
101,5023,Cleburne,Arkansas,-92.0267180322,35.5381064958,584.5005511544546
102,5025,Cleveland,Arkansas,-92.1851454385,33.8983618624,568.2213479472553
103,5027,Columbia,Arkansas,-93.227308885,33.2142871374,599.8902839602677
104,5029,Conway,Arkansas,-92.7013072101,35.2622207059,501.82292571364064
105,5031,Craighead,Arkansas,-90.632841255,35.8307887047,504.85192059107123
106,5033,Crawford,Arkansas,-94.2429568096,35.5884840734,515.803640548968
107,5035,Crittenden,Arkansas,-90.3088719897,35.2079371348,525.8568308008494
108,5037,Cross,Arkansas,-90.771226853,35.2957261162,576.5251373985166
109,5039,Dallas,Arkansas,-92.6544402046,33.9698311293,589.2387259826569
110,5041,Desha,Arkansas,-91.2539442656,33.8333331807,535.8464777862124
111,5043,Drew,Arkansas,-91.720023319,33.5894557062,581.8165085358402
112,5045,Faulkner,Arkansas,-92.332041157,35.1469781265,536.7599349584524
113,5047,Franklin,Arkansas,-93.8906143781,35.5123637272,560.0301024795722
114,5049,Fulton,Arkansas,-91.8182352994,36.3816695474,507.3255204528513
115,5051,Garland,Arkansas,-93.150399652,34.5767017575,596.2801331619842
116,5053,Grant,Arkansas,-92.4235830486,34.2900177408,557.5954427139883
117,5055,Greene,Arkansas,-90.5590717273,36.117697723,582.1340749703062
118,5057,Hempstead,Arkansas,-93.6684431539,33.7353045888,580.6298621720425
119,5061,Howard,Arkansas,-93.9934933573,34.0887429323,568.4620950577937
120,5063,Independence,Arkansas,-91.5697116529,35.7415534129,587.3542971904842
121,5065,Izard,Arkansas,-91.9134102959,36.0948699143,513.546376686302
122,5067,Jackson,Arkansas,-91.2145376687,35.5992402368,500.49182662471804
123,5069,Jefferson,Arkansas,-91.9315146225,34.2687844437,502.35707628757206
124,5071,Johnson,Arkansas,-93.4598811569,35.5701227411,522.4334501588614
125,5073,Lafayette,Arkansas,-93.6070389924,33.2409810885,524.6371064299761
126,5075,Lawrence,Arkansas,-91.1070801351,36.0412452465,506.67783589822363
127,5077,Lee,Arkansas,-90.7820673213,34.7806229431,510.96792276748704
128,5079,Lincoln,Arkansas,-91.7333211971,33.9574736745,527.7835212204304
129,5083,Logan,Arkansas,-93.7162169926,35.2153385104,518.9349059801829
130,5085,Lonoke,Arkansas,-91.8887898981,34.7542368128,598.5853361739065
131,5087,Madison,Arkansas,-93.7245618667,36.0109653302,567.8500363044286
132,5089,Marion,Arkansas,-92.6842202167,36.2683474959,537.0452797521257
133,5091,Miller,Arkansas,-93.8915614277,33.3121471783,595.8662307593628
134,5093,Mississippi,Arkansas,-90.0541660119,35.7639016515,527.2825867228552
135,5095,Monroe,Arkansas,-91.2038921969,34.6778362856,517.0429228593003
136,5097,Montgomery,Arkansas,-93.6595529416,34.5387970384,526.5517145342953
137,5099,Nevada,Arkansas,-93.3071433023,33.6639660687,509.9734238873058
138,5101,Newton,Arkansas,-93.2178669264,35.9199743544,567.2141898048849
139,5103,Ouachita,Arkansas,-92.8819343531,33.5933550412,566.3802531034598
140,5105,Perry,Arkansas,-92.9314699116,34.9473737476,592.3393299340804
141,5107,Phillips,Arkansas,-90.8480221032,34.42829125,508.30105147765437
142,5109,Pike,Arkansas,-93.6563416658,34.1634980417,597.7078077689183
143,5111,Poinsett,Arkansas,-90.6629400421,35.5740321244,560.7680439022
144,5113,Polk,Arkansas,-94.2280604373,34.4858849277,530.6380469107366
145,5115,Pope,Arkansas,-93.0341542751,35.447636026,550.8828174541546
146,5117,Prairie,Arkansas,-91.5527759528,34.8297827954,535.5496965446417
147,5119,Pulaski,Arkansas,-92.3119257562,34.7699753373,563.9733855078097
148,5121,Randolph,Arkansas,-91.0277165202,36.341483312,540.0104526601018
149,5125,Saline,Arkansas,-92.676575561,34.6466183905,572.8798942146925
150,5127,Scott,Arkansas,-94.0632792993,34.8607684689,562.178322377053
151,5129,Searcy,Arkansas,-92.6995245166,35.9109060184,562.0114606727108
152,5131,Sebastian,Arkansas,-94.2741206259,35.1993218755,594.9884514113749
153,5133,Sevier,Arkansas,-94.2412727038,33.9972551652,579.6333010042158
154,5135,Sharp,Arkansas,-91.4798585278,36.1611646374,513.5564193854026
155,5137,Stone,Arkansas,-92.1567129536,35.8598655553,561.313389526527
156,5139,Union,Arkansas,-92.5972913761,33.171357538,530.3857215159387
157,5143,Washington,Arkansas,-94.2155848036,35.9790563044,518.1720247238233
158,5145,White,Arkansas,-91.7455472673,35.2562753346,543.6722588041662
159,5147,Woodruff,Arkansas,-91.2430822004,35.1863303424,557.9177044367543
160,5149,Yell,Arkansas,-93.4112514229,35.0025779761,534.1773394344825
161,6001,Alameda,California,-121.917998966,37.6504930265,119.11903522594062
162,6003,Alpine,California,-119.82065303,38.5972506332,142.19804295420155
163,6005,Amador,California,-120.651115621,38.446389504,162.9758164389249
164,6007,Butte,California,-121.600671735,39.6669293633,169.6054608357628
165,6009,Calaveras,California,-120.554132098,38.204606803,193.7729423413653
166,6011,Colusa,California,-122.237029616,39.177573113,131.9373855063743
167,6019,Fresno,California,-119.649322632,36.7581801263,121.15740529072498
168,6021,Glenn,California,-122.392206808,39.5984047698,198.48744791684248
169,6023,Humboldt,California,-123.915819446,40.7050090829,181.05357993693931
170,6025,Imperial,California,-115.365336962,33.0395904342,133.510331070562
171,6027,Inyo,California,-117.410789686,36.5111268089,199.05526854196944
172,6029,Kern,California,-118.729900424,35.3428473738,129.8754382853605
173,6031,Kings,California,-119.815502709,36.0753604529,107.83943626503977
174,6033,Lake,California,-122.753183909,39.0996453445,142.15937227139395
175,6035,Lassen,California,-120.594332834,40.6735903894,136.36122892643442
176,6039,Madera,California,-119.762644507,37.2180440575,136.1909932552812
177,6041,Marin,California,-122.748858563,38.05518334,121.16320165814606
178,6043,Mariposa,California,-119.905517029,37.5815223099,111.10201910559124
179,6045,Mendocino,California,-123.431553907,39.4336238198,176.68684829989806
180,6047,Merced,California,-120.717688,37.191870471,105.96154965303259
181,6049,Modoc,California,-120.725028959,41.5898335739,186.68620520310645
182,6051,Mono,California,-118.886709262,37.938990343,173.52088362113622
183,6053,Monterey,California,-121.308901554,36.2397743956,190.28071495747196
184,6055,Napa,California,-122.330538465,38.5064964441,181.76892243786665
185,6057,Nevada,California,-120.768752113,39.301369579,171.09309734843112
186,6059,Orange,California,-117.776142822,33.6769134328,107.66367167552148
187,6061,Placer,California,-120.717645936,39.0634313879,100.86748838469319
188,6063,Plumas,California,-120.838597596,40.0046824769,144.28402764174044
189,6065,Riverside,California,-115.993845895,33.7436800499,148.54910763073505
190,6067,Sacramento,California,-121.344253814,38.4493208547,166.73262736770232
191,6089,Shasta,California,-122.040521531,40.7637666014,165.47020518956958
192,6091,Sierra,California,-120.515996378,39.5804001016,159.38084018341425
193,6093,Siskiyou,California,-122.540367763,41.5926866339,190.1414884214247
194,6095,Solano,California,-121.940024418,38.2669127871,140.9513658502304
195,6097,Sonoma,California,-122.922544658,38.525292575,102.88664626331206
196,6099,Stanislaus,California,-120.997682895,37.5591374435,169.42145541165604
197,6101,Sutter,California,-121.694849665,39.0345595213,134.38263058979035
198,6103,Tehama,California,-122.233884853,40.1257361849,137.79251778730168
199,6105,Trinity,California,-123.112627727,40.6506935615,106.61077004730602
200,6107,Tulare,California,-118.80047248,36.220156659,190.05792762013346
201,6109,Tuolumne,California,-119.95475358,38.0276014047,156.69182763831742
202,6111,Ventura,California,-119.126027193,34.3575285169,142.9008227763361
203,6113,Yolo,California,-121.90161702,38.6866603948,128.43859717715105
204,6115,Yuba,California,-121.351262732,39.2690076722,165.85551659148848
205,8001,Adams,Colorado,-104.337801716,39.8736400746,14.279777477015417
206,8003,Alamosa,Colorado,-105.788288197,37.5728931402,15.68681161185193
207,8005,Arapahoe,Colorado,-104.339234024,39.6497752303,4.1030211323719135
208,8007,Archuleta,Colorado,-107.048288324,37.1936094363,14.158171155089024
209,8009,Baca,Colorado,-102.560476646,37.3191787991,21.040780730238453
210,8011,Bent,Colorado,-103.071704571,37.9550855775,10.22732567739294
211,8013,Boulder,Colorado,-105.35770567,40.0924597674,15.645320731270411
212,8015,Chaffee,Colorado,-106.194066665,38.7469030854,8.274789327751039
213,8017,Cheyenne,Colorado,-102.603395824,38.8279397207,15.914206809042923
214,8021,Conejos,Colorado,-106.191627951,37.2006875346,23.46461356176538
215,8023,Costilla,Colorado,-105.428249706,37.2779522735,18.866354479868647
216,8025,Crowley,Colorado,-103.784825661,38.326661062,19.373263565061485
217,8027,Custer,Colorado,-105.367471778,38.1086779015,5.254243475928626
218,8029,Delta,Colorado,-107.862876811,38.8613737904,10.928468563980172
219,8033,Dolores,Colorado,-108.517265273,37.7516108062,5.628784847246529
220,8035,Douglas,Colorado,-104.929559461,39.3297243092,21.816884883917712
221,8037,Eagle,Colorado,-106.695299259,39.6278256159,5.158280280851346
222,8039,Elbert,Colorado,-104.13588983,39.2865595002,20.85319099699299
223,8043,Fremont,Colorado,-105.439657054,38.4729724659,12.358531979338558
224,8045,Garfield,Colorado,-107.903956154,39.599307179,7.066394914534129
225,8047,Gilpin,Colorado,-105.522621196,39.8575436237,15.497798946632104
226,8049,Grand,Colorado,-106.118358313,40.102614944,2.4879906162817864
227,8051,Gunnison,Colorado,-107.031700114,38.6667977063,28.167479793816288
228,8053,Hinsdale,Colorado,-107.300311758,37.8213415755,2.152305479570975
229,8055,Huerfano,Colorado,-104.960584534,37.6846796381,7.659034776829339
230,8057,Jackson,Colorado,-106.342794688,40.6664326842,18.179848507138242
231,8059,Jefferson,Colorado,-105.250466793,39.5864284092,17.871735514889366
232,8061,Kiowa,Colorado,-102.740340455,38.4326851414,15.06700073800173
233,8065,Lake,Colorado,-106.344837734,39.2023794705,15.982625970740816
234,8069,Larimer,Colorado,-105.461144451,40.6664172232,12.515041746974955
235,8073,Lincoln,Colorado,-103.513965366,38.9880685587,0.20547547641310948
236,8075,Logan,Colorado,-103.110095731,40.7246687188,29.715131316880267
237,8077,Mesa,Colorado,-108.466440182,39.0182904955,21.176048595725746
238,8079,Mineral,Colorado,-106.924094646,37.6689956825,21.212658041613143
239,8081,Moffat,Colorado,-108.207290604,40.61842222,28.166817249401777
240,8083,Montezuma,Colorado,-108.596669828,37.3384339705,16.819823527310117
241,8085,Montrose,Colorado,-108.269451135,38.4021560325,6.914659870541303
242,8087,Morgan,Colorado,-103.809822237,40.2627443761,12.72052846766909
243,8089,Otero,Colorado,-103.716445685,37.9027017254,11.231658555980983
244,8091,Ouray,Colorado,-107.76931682,38.1554971802,14.08824673056123
245,8093,Park,Colorado,-105.717174716,39.1193028617,10.815216953058979
246,8095,Phillips,Colorado,-102.357579601,40.5938843197,17.376421101824917
247,8097,Pitkin,Colorado,-106.916577749,39.2171057452,27.189832250980032
248,8099,Prowers,Colorado,-102.393348977,37.9551831858,6.120452800574854
249,8101,Pueblo,Colorado,-104.512845555,38.1734202345,26.094830079544845
250,8107,Routt,Colorado,-106.991193187,40.4850679408,9.079990405349305
251,8109,Saguache,Colorado,-106.281555562,38.0805527548,15.500426619934894
252,8115,Sedgwick,Colorado,-102.351791195,40.8759049641,26.430615073322397
253,8117,Summit,Colorado,-106.116379137,39.634170806,21.988399321562405
254,8119,Teller,Colorado,-105.161826391,38.8821720468,5.380722378215715
255,8121,Washington,Colorado,-103.201252881,39.9710617874,13.236614394215625
256,8123,Weld,Colorado,-104.392531357,40.5548298977,12.493304067036732
257,8125,Yuma,Colorado,-102.424226323,40.0028993432,10.570710858997154
258,9001,Fairfield,Connecticut,-73.3712046145,41.2249600832,572.6134480620018
259,9003,Hartford,Connecticut,-72.7328122495,41.8064287933,509.54554394669674
260,9005,Litchfield,Connecticut,-73.2453207905,41.7924983178,599.023876658081
261,9007,Middlesex,Connecticut,-72.5231194296,41.4353818043,575.8192585345045
262,9013,Tolland,Connecticut,-72.3365016791,41.855065982,531.9138285616996
263,9015,Windham,Connecticut,-71.9874782796,41.8300455104,512.6715794208664
264,10001,Kent,Delaware,-75.5046137018,39.0959545402,523.8819338190142
265,10005,Sussex,Delaware,-75.3395417153,38.6832973547,519.5135547507434
266,12001,Alachua,Florida,-82.3577015483,29.6747549911,585.2189783140257
267,12003,Baker,Florida,-82.2845872684,30.331070985,576.0915342006317
268,12005,Bay,Florida,-85.6326228076,30.237646533,573.5690346302541
269,12007,Bradford,Florida,-82.1687777662,29.9499595746,564.845072169122
270,12009,Brevard,Florida,-80.7012054832,28.300314142,546.3917400046033
271,12011,Broward,Florida,-80.4558842537,26.1518560378,534.2575585646873
272,12013,Calhoun,Florida,-85.1972071433,30.4060343343,583.1000189175645
273,12015,Charlotte,Florida,-81.9503159678,26.8998432654,553.8510754427671
274,12017,Citrus,Florida,-82.5201067311,28.8475696914,599.6884235604857
275,12019,Clay,Florida,-81.8578845259,29.9830664456,511.6479296659856
276,12021,Collier,Florida,-81.3809730552,26.0992389901,557.3673470619469
277,12023,Columbia,Florida,-82.6215388925,30.2242399397,538.5382909470542
278,12027,DeSoto,Florida,-81.8094429515,27.1863023348,515.8260480506699
279,12029,Dixie,Florida,-83.1870324531,29.5812415277,529.1420480081712
280,12031,Duval,Florida,-81.6480093213,30.3354403303,532.0052710107078
281,12033,Escambia,Florida,-87.3413643298,30.6143960313,538.4712633821059
282,12035,Flagler,Florida,-81.2929913884,29.4711426482,581.8053090013208
283,12037,Franklin,Florida,-84.8004565948,29.8116835857,507.1328513762927
284,12039,Gadsden,Florida,-84.6135993294,30.5794688821,529.936409774341
285,12041,Gilchrist,Florida,-82.8003665306,29.7258227162,570.2923169547629
286,12043,Glades,Florida,-81.1890293853,26.9564459351,522.7295687438924
287,12045,Gulf,Florida,-85.2610062794,29.9086211231,543.9219999783111
288,12047,Hamilton,Florida,-82.9479591393,30.4964266893,561.0786026490857
289,12049,Hardee,Florida,-81.8100059395,27.4927094815,509.5741028891601
290,12051,Hendry,Florida,-81.1659012496,26.5534898513,561.0041490205264
291,12053,Hernando,Florida,-82.4684895116,28.5561708513,559.0174487677648
292,12055,Highlands,Florida,-81.3410379056,27.3433797347,526.4896969928541
293,12057,Hillsborough,Florida,-82.346916153,27.9062278359,521.8521286092431
294,12059,Holmes,Florida,-85.8141023534,30.8678906078,575.4666365687069
295,12063,Jackson,Florida,-85.2154596916,30.7953911236,544.3460626547411
296,12065,Jefferson,Florida,-83.9004744786,30.4234582107,577.6456722686194
297,12067,Lafayette,Florida,-83.1810673054,29.9855183221,556.117898181535
298,12069,Lake,Florida,-81.7113031676,28.7614688332,534.9700200371136
299,12071,Lee,Florida,-81.9154527285,26.5756896561,564.534532282855
300,12073,Leon,Florida,-84.2778815189,30.458037893,547.0961976336374
301,12075,Levy,Florida,-82.7886132018,29.2822055783,580.8004814920324
302,12077,Liberty,Florida,-84.8829111582,30.2413631478,556.2989749843395
303,12079,Madison,Florida,-83.4701228264,30.4441430277,570.9964637726498
304,12081,Manatee,Florida,-82.3575458711,27.4775188749,578.1174512850131
305,12083,Marion,Florida,-82.0566756823,29.2102022904,587.7689456948181
306,12085,Martin,Florida,-80.3984639525,27.0816164392,587.0936831871786
307,12086,Miami-Dade,Florida,-80.4986673175,25.6089674858,519.782042671446
308,12087,Monroe,Florida,-81.1856924179,25.0467803277,553.5460231367431
309,12089,Nassau,Florida,-81.7714179132,30.6105780997,563.8858866803637
310,12091,Okaloosa,Florida,-86.5921750794,30.6650297247,588.6568944210442
311,12093,Okeechobee,Florida,-80.888585011,27.3863036127,542.3479016666764
312,12095,Orange,Florida,-81.3234735281,28.5144162588,581.5241865099487
313,12097,Osceola,Florida,-81.1494997552,28.0626646156,589.4549624218258
314,12101,Pasco,Florida,-82.438869799,28.3067419076,522.1369453386153
315,12103,Pinellas,Florida,-82.7395539464,27.9026762041,501.76640815409075
316,12105,Polk,Florida,-81.6976853961,27.9488714857,585.2485542705676
317,12107,Putnam,Florida,-81.7443041288,29.6086348479,550.5791111651574
318,12115,Sarasota,Florida,-82.3649735213,27.1824778115,577.2347126128142
319,12117,Seminole,Florida,-81.2363275276,28.7169755783,559.9483809614605
320,12119,Sumter,Florida,-82.0809953636,28.7048225353,506.0313277144768
321,12121,Suwannee,Florida,-82.9914923725,30.1956117481,554.1043763746063
322,12123,Taylor,Florida,-83.6189726465,30.0195666061,500.68753934437854
323,12125,Union,Florida,-82.3714410129,30.0438391148,519.0184341278386
324,12127,Volusia,Florida,-81.1485743573,29.0634475051,524.3846835812526
325,12129,Wakulla,Florida,-84.3756074885,30.1477719789,509.7072664438673
326,12131,Walton,Florida,-86.1715163089,30.6184688458,538.2054292211378
327,12133,Washington,Florida,-85.6653287163,30.6105923313,598.267060514853
328,13001,Appling,Georgia,-82.288983582,31.7492803518,523.4744408064412
329,13003,Atkinson,Georgia,-82.8799928978,31.2971083422,566.8121280855278
330,13005,Bacon,Georgia,-82.4526850982,31.5536748311,533.376061498055
331,13007,Baker,Georgia,-84.4446694741,31.326183927,521.9563637786924
332,13009,Baldwin,Georgia,-83.2495906334,33.0692757535,504.06824181809714
333,13011,Banks,Georgia,-83.4973801652,34.3541370113,510.09161838490644
334,13013,Barrow,Georgia,-83.7127549805,33.9931962064,518.0271322247866
335,13015,Bartow,Georgia,-84.8403384771,34.2376620909,539.2299617441
336,13019,Berrien,Georgia,-83.229622,31.2760599041,552.3435008949892
337,13021,Bibb,Georgia,-83.6974200138,32.8064982238,524.4362364369639
338,13023,Bleckley,Georgia,-83.3278388255,32.4344414462,524.3339290486812
339,13025,Brantley,Georgia,-81.9818955745,31.1968761426,508.41195150360244
340,13027,Brooks,Georgia,-83.5802119065,30.8419677363,543.9002516515575
341,13029,Bryan,Georgia,-81.4424722248,32.013224335,502.0409044391108
342,13031,Bulloch,Georgia,-81.7431781429,32.3968141786,559.8204986559836
343,13033,Burke,Georgia,-82.0007811537,33.0611535027,527.7122294571134
344,13035,Butts,Georgia,-83.9571695116,33.2878507429,578.8121250370519
345,13037,Calhoun,Georgia,-84.6245076946,31.5291972743,504.78276543639964
346,13039,Camden,Georgia,-81.6363849358,30.9224883015,577.1641734173137
347,13043,Candler,Georgia,-82.0736728222,32.403442782,596.5362530020524
348,13045,Carroll,Georgia,-85.0797630545,33.5827978515,516.9863376275468
349,13047,Catoosa,Georgia,-85.1382470065,34.9036574214,506.80374296453
350,13049,Charlton,Georgia,-82.1376881412,30.7817272016,530.7761257188369
351,13051,Chatham,Georgia,-81.0939703133,31.9739511211,519.3099797209795
352,13053,Chattahoochee,Georgia,-84.7870462059,32.346971275,502.52997315274206
353,13055,Chattooga,Georgia,-85.3452913609,34.4750152607,530.7204946293516
354,13057,Cherokee,Georgia,-84.4761934266,34.2439383654,514.612213590771
355,13059,Clarke,Georgia,-83.3673290793,33.9511687467,509.92502526042534
356,13061,Clay,Georgia,-84.9801029119,31.6262755156,504.79449827304643
357,13063,Clayton,Georgia,-84.3576542517,33.5419006063,518.6120968682338
358,13065,Clinch,Georgia,-82.7062370645,30.9149468971,567.3228924025724
359,13067,Cobb,Georgia,-84.5766842461,33.9414815247,503.04616947714396
360,13069,Coffee,Georgia,-82.8492009827,31.5492717947,579.81575771872
361,13071,Colquitt,Georgia,-83.7688482856,31.1883904668,595.6638381295755
362,13073,Columbia,Georgia,-82.2640527023,33.5441179101,569.4820999086295
363,13075,Cook,Georgia,-83.4304650673,31.1539910285,533.1386727079308
364,13077,Coweta,Georgia,-84.7633607428,33.3534616689,551.1886719563524
365,13079,Crawford,Georgia,-83.9863423246,32.7145016626,571.0200673522249
366,13081,Crisp,Georgia,-83.768102221,31.9229299181,532.6421976973329
367,13083,Dade,Georgia,-85.5045272078,34.854520662,541.4019454354944
368,13085,Dawson,Georgia,-84.1706356875,34.4442980744,575.6482194245808
369,13087,Decatur,Georgia,-84.5790701498,30.8783441069,506.48821074496414
370,13089,DeKalb,Georgia,-84.226432416,33.7715468713,510.4776948828025
371,13091,Dodge,Georgia,-83.168399978,32.1721824488,502.53250741311626
372,13093,Dooly,Georgia,-83.7987668507,32.1571759799,555.8523109284725
373,13095,Dougherty,Georgia,-84.2162536823,31.5333740309,549.5006475871398
374,13097,Douglas,Georgia,-84.7679728373,33.701828378,590.4579135825396
375,13099,Early,Georgia,-84.9036434233,31.3228327133,574.0522477055915
376,13101,Echols,Georgia,-82.8939351883,30.7100896074,537.8237877797418
377,13103,Effingham,Georgia,-81.3413404834,32.3673093945,592.632440099838
378,13105,Elbert,Georgia,-82.8400954979,34.1167932846,509.77294240487134
379,13107,Emanuel,Georgia,-82.301708462,32.5897619047,532.3252628592926
380,13109,Evans,Georgia,-81.8868846224,32.1567629596,503.27450644435385
381,13111,Fannin,Georgia,-84.3198525836,34.8641146532,540.3991871013707
382,13113,Fayette,Georgia,-84.4941911259,33.4139430365,586.0643279857214
383,13115,Floyd,Georgia,-85.2142786499,34.263162689,542.4351957237199
384,13117,Forsyth,Georgia,-84.1250173789,34.225546386,533.7268187463064
385,13119,Franklin,Georgia,-83.2291886374,34.3754273152,535.5087702101221
386,13121,Fulton,Georgia,-84.4669897339,33.7902830104,568.8251991296652
387,13123,Gilmer,Georgia,-84.4556269832,34.6911781057,577.4069465877683
388,13125,Glascock,Georgia,-82.6107022318,33.2292799721,510.26998680589
389,13127,Glynn,Georgia,-81.4936975935,31.2132418055,552.2271957384706
390,13129,Gordon,Georgia,-84.8759139254,34.5031701949,518.7812557404357
391,13131,Grady,Georgia,-84.2344263446,30.8746728358,535.2702456722822
392,13133,Greene,Georgia,-83.1666552038,33.5787842008,599.6315037766421
393,13135,Gwinnett,Georgia,-84.0236132972,33.9617197861,554.041868507494
394,13137,Habersham,Georgia,-83.5311320934,34.6310256133,599.20106032744
395,13139,Hall,Georgia,-83.81967864,34.316890097,512.4278078366902
396,13141,Hancock,Georgia,-83.0006868923,33.2704260085,500.45245166784923
397,13143,Haralson,Georgia,-85.2110263502,33.7942334247,559.0843777558025
398,13145,Harris,Georgia,-84.9089881157,32.7360040875,519.845262451001
399,13147,Hart,Georgia,-82.9642475976,34.3508983325,535.6600699091715
400,13149,Heard,Georgia,-85.128270367,33.2970283837,546.4259451962449
401,13151,Henry,Georgia,-84.1541806022,33.4529935799,592.4302268587171
402,13153,Houston,Georgia,-83.6662408919,32.458996427,571.7731564645585
403,13155,Irwin,Georgia,-83.2763750394,31.6022829517,569.8061826131155
404,13157,Jackson,Georgia,-83.5663480377,34.1338827438,516.1457299562612
405,13159,Jasper,Georgia,-83.6880895838,33.3164335785,551.4774875014508
406,13163,Jefferson,Georgia,-82.4181514496,33.0548441405,547.5113739748313
407,13165,Jenkins,Georgia,-81.9635320121,32.7924711254,543.7571058886617
408,13167,Johnson,Georgia,-82.6600810997,32.7014650504,553.131337771985
409,13169,Jones,Georgia,-83.5605241695,33.0251331683,524.6810353869387
410,13171,Lamar,Georgia,-84.1394626622,33.0765357599,500.66359206171387
411,13173,Lanier,Georgia,-83.0626533592,31.0378936572,597.452063195129
412,13175,Laurens,Georgia,-82.9222383646,32.4636565938,564.0526765926578
413,13177,Lee,Georgia,-84.1411344532,31.7795065577,563.3541477441292
414,13179,Liberty,Georgia,-81.4562556854,31.8072288628,574.5208644024851
415,13181,Lincoln,Georgia,-82.4512128043,33.7936596461,577.4645783161416
416,13183,Long,Georgia,-81.7457669756,31.752584831,511.997238394066
417,13185,Lowndes,Georgia,-83.2677076921,30.8338568988,585.9848658348566
418,13187,Lumpkin,Georgia,-84.0026558339,34.5721889489,535.9434885190394
419,13189,McDuffie,Georgia,-82.4813683615,33.4828592099,549.9461509039625
420,13191,McIntosh,Georgia,-81.3755663746,31.4838062078,523.403743193821
421,13193,Macon,Georgia,-84.0424794131,32.3583825945,571.7347443942197
422,13195,Madison,Georgia,-83.2090415694,34.1277855795,538.4902592769869
423,13197,Marion,Georgia,-84.5246378869,32.3533781815,548.5080606728789
424,13199,Meriwether,Georgia,-84.6883115804,33.0406559359,564.8185869963504
425,13201,Miller,Georgia,-84.7307216738,31.1639914481,518.9581049497875
426,13205,Mitchell,Georgia,-84.1943088346,31.2253196926,565.9600500154536
427,13207,Monroe,Georgia,-83.9186821405,33.0138972496,529.377136388759
428,13209,Montgomery,Georgia,-82.5348172563,32.1733642109,505.94483065591174
429,13211,Morgan,Georgia,-83.4923823005,33.5908249244,525.4638892134703
430,13213,Murray,Georgia,-84.7480935785,34.7884475042,526.4970349825161
431,13215,Muscogee,Georgia,-84.8770429861,32.5099583696,598.3314370842234
432,13217,Newton,Georgia,-83.8501865375,33.5550489458,587.1606184701023
433,13219,Oconee,Georgia,-83.437054781,33.8349402867,556.8788566646874
434,13221,Oglethorpe,Georgia,-83.0807032108,33.8806479609,565.8130842879186
435,13223,Paulding,Georgia,-84.867288503,33.9205455549,591.7899912786816
436,13225,Peach,Georgia,-83.8268633608,32.5687919024,562.15458123665
437,13227,Pickens,Georgia,-84.4656390578,34.4643197803,566.3578527197324
438,13229,Pierce,Georgia,-82.2127427051,31.3587576021,500.6219499393245
439,13231,Pike,Georgia,-84.3892346459,33.0922652469,516.2804550271569
440,13233,Polk,Georgia,-85.1881533822,34.0017844854,594.523403784808
441,13235,Pulaski,Georgia,-83.4759611368,32.2322990847,586.8132593166808
442,13237,Putnam,Georgia,-83.3728413605,33.3217673671,529.9100571844393
443,13239,Quitman,Georgia,-85.0187841576,31.8673305599,512.2861508838225
444,13241,Rabun,Georgia,-83.4020764834,34.8817246173,528.1582690545105
445,13243,Randolph,Georgia,-84.7541920738,31.7626226688,583.8554251206504
446,13245,Richmond,Georgia,-82.0735477739,33.3596322314,577.4028512861762
447,13247,Rockdale,Georgia,-84.0266082893,33.6542354352,540.2768247491645
448,13249,Schley,Georgia,-84.3147208166,32.2616858077,558.5938917883765
449,13251,Screven,Georgia,-81.6119345544,32.7505866271,529.2306109535332
450,13253,Seminole,Georgia,-84.8688701106,30.9387779365,505.41869406594174
451,13255,Spalding,Georgia,-84.2841507002,33.2608769536,501.0294587066148
452,13257,Stephens,Georgia,-83.2934335296,34.5539435236,511.40037254202514
453,13259,Stewart,Georgia,-84.8352023744,32.0784621843,547.8892397355262
454,13261,Sumter,Georgia,-84.1970560516,32.039959396,560.5443443885373
455,13263,Talbot,Georgia,-84.5330101769,32.699486303,596.9570325130644
456,13265,Taliaferro,Georgia,-82.8787644687,33.5660908408,586.6597693705585
457,13267,Tattnall,Georgia,-82.0581758793,32.0457484071,576.978370754773
458,13269,Taylor,Georgia,-84.2504642348,32.5554592715,541.7528178390266
459,13271,Telfair,Georgia,-82.9389875255,31.929800968,543.9441347721937
460,13273,Terrell,Georgia,-84.4369222013,31.7768809864,599.1704951221442
461,13275,Thomas,Georgia,-83.9193134094,30.8636815475,548.1912281716446
462,13277,Tift,Georgia,-83.5265943229,31.4574378292,544.7833397476795
463,13279,Toombs,Georgia,-82.3312929099,32.1217203314,537.503127666788
464,13281,Towns,Georgia,-83.7372785445,34.9167055034,534.2873578224048
465,13283,Treutlen,Georgia,-82.567282527,32.4038815035,575.7216111455441
466,13285,Troup,Georgia,-85.0283367991,33.0335103757,509.8483155030293
467,13287,Turner,Georgia,-83.6240929756,31.7163847519,596.383631055485
468,13289,Twiggs,Georgia,-83.4270835327,32.6672014402,592.9131666619556
469,13291,Union,Georgia,-83.990719955,34.8340257189,578.0264265444384
470,13293,Upson,Georgia,-84.2993435146,32.8812700424,517.9964790401593
471,13295,Walker,Georgia,-85.3009850599,34.7356590026,540.3763253642525
472,13297,Walton,Georgia,-83.7338466262,33.7815571316,586.9306857682107
473,13299,Ware,Georgia,-82.4236757904,31.0536324937,507.15937549832586
474,13301,Warren,Georgia,-82.6767617191,33.4089633624,599.0630230530926
475,13303,Washington,Georgia,-82.7958991685,32.9695357353,585.7231280365711
476,13305,Wayne,Georgia,-81.9167587358,31.5514336788,586.9767572544434
477,13307,Webster,Georgia,-84.5510526557,32.0466488616,503.3048360941534
478,13309,Wheeler,Georgia,-82.7245932678,32.1170652349,565.8001723841776
479,13311,White,Georgia,-83.747108233,34.6463905658,566.0062287243243
480,13313,Whitfield,Georgia,-84.9672206823,34.8056115749,510.9256740533957
481,13315,Wilcox,Georgia,-83.4323638025,31.9728932009,560.3962671540111
482,13317,Wilkes,Georgia,-82.743226753,33.7819451825,542.3636856064855
483,13319,Wilkinson,Georgia,-83.1712490669,32.8024055204,574.937736139024
484,13321,Worth,Georgia,-83.8508756933,31.5515116745,586.5979505879563
485,16001,Ada,Idaho,-116.241166631,43.4511000415,191.53570705354198
486,16003,Adams,Idaho,-116.453882862,44.8895880248,157.65155643377432
487,16005,Bannock,Idaho,-112.224618777,42.6684852128,15.554700319880789
488,16009,Benewah,Idaho,-116.658654162,47.2175378518,195.61087054335735
489,16011,Bingham,Idaho,-112.398078523,43.2165580516,17.55635731089717
490,16013,Blaine,Idaho,-113.980147573,43.411940562,176.9841146411478
491,16015,Boise,Idaho,-115.730322485,43.9891394613,161.9714163844742
492,16017,Bonner,Idaho,-116.601061373,48.3000250033,128.2140793183314
493,16019,Bonneville,Idaho,-111.614752705,43.3877423794,2.0342579165732477
494,16021,Boundary,Idaho,-116.462903445,48.7668933923,164.77509615056766
495,16023,Butte,Idaho,-113.172032247,43.7229327365,124.70720506765798
496,16025,Camas,Idaho,-114.805776873,43.4633261176,192.6432737385448
497,16027,Canyon,Idaho,-116.709270124,43.6250870279,152.22630108346254
498,16029,Caribou,Idaho,-111.562215274,42.7705180974,21.428350719199962
499,16031,Cassia,Idaho,-113.600088287,42.2838809992,198.95881178839045
500,16033,Clark,Idaho,-112.351297512,44.2839056343,10.07563019169218
501,16035,Clearwater,Idaho,-115.65690713,46.6737194276,136.45061848277606
502,16037,Custer,Idaho,-114.281712396,44.2411163796,135.06744565342854
503,16039,Elmore,Idaho,-115.469262353,43.3538854014,131.64094358950229
504,16041,Franklin,Idaho,-111.813201111,42.1810916537,28.76712325212458
505,16043,Fremont,Idaho,-111.481955865,44.2287741072,26.456457251581423
506,16045,Gem,Idaho,-116.397518964,44.061546541,112.39003030748763
507,16047,Gooding,Idaho,-114.811514939,42.9710217012,146.84898326381514
508,16049,Idaho,Idaho,-115.46748731,45.8441976984,172.5668941110701
509,16051,Jefferson,Idaho,-112.311302461,43.8201324535,28.266657335207352
510,16053,Jerome,Idaho,-114.263941364,42.6899047449,135.14688811308088
511,16055,Kootenai,Idaho,-116.701762031,47.6743566297,174.88143485669355
512,16057,Latah,Idaho,-116.711723179,46.8161762124,129.71813073712667
513,16059,Lemhi,Idaho,-113.933251642,44.9432516761,122.1072339812488
514,16061,Lewis,Idaho,-116.426326116,46.2369933896,172.99846840229412
515,16063,Lincoln,Idaho,-114.138200808,43.0023986959,176.23513106935957
516,16065,Madison,Idaho,-111.659188485,43.7841402516,13.837572840659316
517,16067,Minidoka,Idaho,-113.637461803,42.8542597176,189.85794014083606
518,16071,Oneida,Idaho,-112.539356598,42.1949698367,29.288908775285588
519,16073,Owyhee,Idaho,-116.169968363,42.5814260739,176.0790513207786
520,16075,Payette,Idaho,-116.76084539,44.0067583131,182.10429866734142
521,16077,Power,Idaho,-112.840655966,42.6936561133,21.502215801281594
522,16079,Shoshone,Idaho,-115.892435463,47.3529575649,167.4526936294546
523,16081,Teton,Idaho,-111.207614545,43.759429876,2.1516528379013513
524,16085,Valley,Idaho,-115.566279021,44.7666370786,105.07393807819821
525,16087,Washington,Idaho,-116.784781333,44.4524547726,145.2660945251343
526,17001,Adams,Illinois,-91.1884921409,39.9879052609,572.905467354645
527,17003,Alexander,Illinois,-89.3376041231,37.191593361,564.8908472447749
528,17005,Bond,Illinois,-89.4355442381,38.8868296401,594.6834460826497
529,17007,Boone,Illinois,-88.8233754157,42.3230756866,590.5840733229516
530,17009,Brown,Illinois,-90.7503556212,39.9617616288,524.5049793148479
531,17011,Bureau,Illinois,-89.5286557577,41.4041459264,548.3652920368968
532,17013,Calhoun,Illinois,-90.6675721556,39.1692979289,516.171177833344
533,17015,Carroll,Illinois,-89.9343041982,42.0687539209,528.7599754533679
534,17017,Cass,Illinois,-90.247375054,39.9735467174,530.6005715107946
535,17019,Champaign,Illinois,-88.1991706674,40.1400890018,590.2565684710905
536,17021,Christian,Illinois,-89.2772543125,39.5458317531,547.7828486936304
537,17023,Clark,Illinois,-87.7877174066,39.3335754723,517.3020809129428
538,17025,Clay,Illinois,-88.4902374225,38.7541714951,537.9888859018482
539,17027,Clinton,Illinois,-89.4224823889,38.6064621876,532.232551111264
540,17029,Coles,Illinois,-88.2217534978,39.5202961461,533.8863125265325
541,17031,Cook,Illinois,-87.6461407931,41.8954290221,520.91294765571
542,17033,Crawford,Illinois,-87.7595511478,39.0026980674,590.2477722652465
543,17035,Cumberland,Illinois,-88.2401981662,39.2733468255,515.0089601606479
544,17037,DeKalb,Illinois,-88.7703159232,41.8935293191,584.9364334032787
545,17041,Douglas,Illinois,-88.2173347046,39.7694547721,593.7522329394208
546,17043,DuPage,Illinois,-88.0855946496,41.8519557671,569.5211513667718
547,17045,Edgar,Illinois,-87.7455648767,39.6785303915,594.5654219043346
548,17047,Edwards,Illinois,-88.053300973,38.4164943803,508.6719269950333
549,17049,Effingham,Illinois,-88.5898533622,39.0597819407,537.0604423433876
550,17051,Fayette,Illinois,-89.0241202321,39.0001785652,561.616494598756
551,17053,Ford,Illinois,-88.2232738465,40.597165174,515.919620208752
552,17055,Franklin,Illinois,-88.9241655023,37.9922926916,529.5913917749784
553,17057,Fulton,Illinois,-90.2074818825,40.4727799619,583.8063397659786
554,17059,Gallatin,Illinois,-88.230465738,37.7627564124,545.3332036258715
555,17061,Greene,Illinois,-90.3904985092,39.3561681629,554.2026706539577
556,17063,Grundy,Illinois,-88.4184956524,41.2851032069,503.9191374567512
557,17065,Hamilton,Illinois,-88.5390962907,38.0815539776,557.3189582928109
558,17067,Hancock,Illinois,-91.1646955496,40.4037747348,515.2459244379864
559,17069,Hardin,Illinois,-88.2667801291,37.5181798892,599.0313101616348
560,17071,Henderson,Illinois,-90.925108658,40.8181139287,520.34281931134
561,17073,Henry,Illinois,-90.1314083142,41.3531364976,596.8317328908433
562,17075,Iroquois,Illinois,-87.8242979012,40.7472371326,513.2398492876662
563,17077,Jackson,Illinois,-89.3820759403,37.7851065199,510.24383908063726
564,17079,Jasper,Illinois,-88.1538411275,39.0100394517,546.5798034633106
565,17081,Jefferson,Illinois,-88.9240091565,38.3005234344,504.44258125593416
566,17083,Jersey,Illinois,-90.3565282985,39.0855054887,546.7529033727969
567,17087,Johnson,Illinois,-88.8809285275,37.4596486226,546.879065023919
568,17089,Kane,Illinois,-88.4286377038,41.9388566679,577.6189677341291
569,17091,Kankakee,Illinois,-87.8618317846,41.1377184724,583.5630922886469
570,17093,Kendall,Illinois,-88.4287883539,41.590577647,524.2178901096656
571,17095,Knox,Illinois,-90.2132382621,40.9318279821,584.2680365373108
572,17097,Lake,Illinois,-87.6311845438,42.325322722,531.1614725472119
573,17099,LaSalle,Illinois,-88.8859379256,41.3440027805,518.4126823261016
574,17101,Lawrence,Illinois,-87.7267298383,38.7199480156,511.7505441782293
575,17103,Lee,Illinois,-89.3003092504,41.7461054437,506.82186848025054
576,17105,Livingston,Illinois,-88.5577158078,40.8915578871,513.1291016104767
577,17107,Logan,Illinois,-89.3675209057,40.1245363517,566.1141020446406
578,17109,McDonough,Illinois,-90.6778776624,40.4562312432,501.8077313013002
579,17111,McHenry,Illinois,-88.4524199255,42.3243507876,509.4995484127044
580,17113,McLean,Illinois,-88.847324278,40.4908916187,517.241091499526
581,17115,Macon,Illinois,-88.9615519316,39.8600027881,506.00040095912044
582,17117,Macoupin,Illinois,-89.924455051,39.2610229552,505.22917489424225
583,17119,Madison,Illinois,-89.90499843,38.8297122608,510.0884745026432
584,17121,Marion,Illinois,-88.9189811153,38.6495781117,552.7311805848706
585,17123,Marshall,Illinois,-89.3447914374,41.0331711391,500.75821353823056
586,17125,Mason,Illinois,-89.9168137955,40.2396222297,575.5670134656216
587,17127,Massac,Illinois,-88.7077397007,37.2190501994,573.3350326094723
588,17129,Menard,Illinois,-89.8021776433,40.0274157084,500.72468085941966
589,17131,Mercer,Illinois,-90.7413938887,41.2053450175,584.190205992549
590,17133,Monroe,Illinois,-90.1772845526,38.2785594463,571.5444659491313
591,17135,Montgomery,Illinois,-89.4788485523,39.2310459341,581.6024053245063
592,17137,Morgan,Illinois,-90.2015195408,39.7155561425,513.0754047834481
593,17139,Moultrie,Illinois,-88.6192951938,39.6414721595,578.2250138572925
594,17141,Ogle,Illinois,-89.3207266558,42.0425663561,521.250279689486
595,17143,Peoria,Illinois,-89.7599800409,40.7880635936,574.2525593455834
596,17145,Perry,Illinois,-89.3670210808,38.083736798,555.4741868496859
597,17147,Piatt,Illinois,-88.5910866502,40.0103527451,526.3176399811313
598,17149,Pike,Illinois,-90.8863042728,39.6224801785,511.56726615874675
599,17151,Pope,Illinois,-88.5616201146,37.4127561973,506.00003664416965
600,17153,Pulaski,Illinois,-89.1265952453,37.222980428,576.4321789744754
601,17155,Putnam,Illinois,-89.2857803179,41.2044899818,595.1155996867271
602,17157,Randolph,Illinois,-89.825176402,38.0520825054,551.1335881562228
603,17159,Richland,Illinois,-88.0851335477,38.7123597006,508.38643557110663
604,17165,Saline,Illinois,-88.5407417954,37.7531363894,505.70749029163534
605,17167,Sangamon,Illinois,-89.6589101835,39.7581742368,562.1069553765949
606,17169,Schuyler,Illinois,-90.6150952137,40.1580424715,530.3645109838874
607,17171,Scott,Illinois,-90.474747165,39.6441138538,569.1512465320969
608,17173,Shelby,Illinois,-88.8055049879,39.3911561848,523.0144158379837
609,17175,Stark,Illinois,-89.7974473885,41.0933920308,561.5391366655645
610,17177,Stephenson,Illinois,-89.6622542939,42.3518291045,559.3028218408629
611,17179,Tazewell,Illinois,-89.5134035348,40.5075329902,573.7557189971712
612,17181,Union,Illinois,-89.255127403,37.4712716191,520.7523163563696
613,17183,Vermilion,Illinois,-87.732815214,40.183401621,592.8490290500773
614,17185,Wabash,Illinois,-87.8442748908,38.4461016023,538.9487044729342
615,17187,Warren,Illinois,-90.6150375695,40.8488341603,581.9655059493994
616,17189,Washington,Illinois,-89.4104744564,38.3521828118,593.3350796214471
617,17191,Wayne,Illinois,-88.4256137919,38.4295611651,510.50427290572986
618,17193,White,Illinois,-88.1795748823,38.0874875679,574.8785700638678
619,17195,Whiteside,Illinois,-89.9141029918,41.7562548803,526.3295145675492
620,17197,Will,Illinois,-87.9786458597,41.4450504457,520.3010678495921
621,17199,Williamson,Illinois,-88.9299244512,37.7302529228,559.8079183193538
622,17201,Winnebago,Illinois,-89.1608658488,42.3362603021,511.81630281932644
623,17203,Woodford,Illinois,-89.2111061648,40.7882358798,594.4247181117014
624,18001,Adams,Indiana,-84.9366547189,40.7456599313,502.4306685252946
625,18003,Allen,Indiana,-85.0665620402,41.0908708811,599.0021672161931
626,18005,Bartholomew,Indiana,-85.8976029732,39.2059705721,593.2071794994214
627,18007,Benton,Indiana,-87.310906018,40.606258463,557.3647045110694
628,18009,Blackford,Indiana,-85.3248199236,40.473600561,560.0091909924511
629,18011,Boone,Indiana,-86.4686962098,40.0508013832,568.3710563217859
630,18013,Brown,Indiana,-86.2273748048,39.1962111616,507.88349675294853
631,18015,Carroll,Indiana,-86.5634841334,40.582858561,541.416158539898
632,18017,Cass,Indiana,-86.3459465589,40.761491497,580.6002311838006
633,18019,Clark,Indiana,-85.7072716297,38.47719455,519.1023753493914
634,18021,Clay,Indiana,-87.1157584406,39.3927278538,555.9398043644267
635,18023,Clinton,Indiana,-86.4751595355,40.3016905964,583.392612260053
636,18025,Crawford,Indiana,-86.4517083941,38.292414567,533.8527362738408
637,18027,Daviess,Indiana,-87.0720684602,38.7024099657,569.2036812094918
638,18029,Dearborn,Indiana,-84.973258532,39.1451918976,524.981722291667
639,18031,Decatur,Indiana,-85.5011430488,39.3069999343,591.7126681592927
640,18033,DeKalb,Indiana,-84.999084282,41.3975800161,522.8342591748795
641,18035,Delaware,Indiana,-85.3968993017,40.2275253191,541.0136848344991
642,18037,Dubois,Indiana,-86.8798021177,38.3642764332,569.4117533163021
643,18039,Elkhart,Indiana,-85.8587552785,41.5973844823,558.6587652353393
644,18041,Fayette,Indiana,-85.1787249608,39.6400558465,581.8431353507278
645,18043,Floyd,Indiana,-85.9068307178,38.3189286397,503.75465600367784
646,18045,Fountain,Indiana,-87.2419916982,40.1208707645,546.0052537299956
647,18047,Franklin,Indiana,-85.0602848847,39.4148645227,592.1980866552753
648,18049,Fulton,Indiana,-86.2635836849,41.0469632989,565.7193048290143
649,18051,Gibson,Indiana,-87.584594368,38.311825371,546.8899452213285
650,18053,Grant,Indiana,-85.6547259036,40.5158445871,542.9384519925571
651,18055,Greene,Indiana,-86.962046365,39.0363277254,556.4339448427326
652,18057,Hamilton,Indiana,-86.0520142517,40.072489475,586.3020221610507
653,18059,Hancock,Indiana,-85.7732376368,39.8235499831,513.3065066797433
654,18061,Harrison,Indiana,-86.1113109452,38.1951228784,596.2072420905387
655,18063,Hendricks,Indiana,-86.5099758786,39.769517371,563.8857293608795
656,18065,Henry,Indiana,-85.3964353742,39.9310397361,537.3290691390129
657,18067,Howard,Indiana,-86.1169307298,40.4835856225,570.74461545048
658,18069,Huntington,Indiana,-85.4881722777,40.8292399575,586.2762410773549
659,18071,Jackson,Indiana,-86.0375413468,38.9064174884,561.3040759790955
660,18073,Jasper,Indiana,-87.1161212419,41.0229983046,549.6786833352631
661,18075,Jay,Indiana,-85.0056353252,40.4379183725,575.0622235754727
662,18077,Jefferson,Indiana,-85.4385728826,38.7858226615,533.8196727390265
663,18079,Jennings,Indiana,-85.6280646001,38.9969300555,546.4171568910413
664,18081,Johnson,Indiana,-86.1016367881,39.4899707456,598.5351235968518
665,18083,Knox,Indiana,-87.4180084675,38.6890898846,583.2212477000023
666,18085,Kosciusko,Indiana,-85.8607176828,41.244097338,515.7939988940211
667,18087,LaGrange,Indiana,-85.4264979093,41.6426062358,509.7577805998814
668,18089,Lake,Indiana,-87.3763856,41.4722121302,567.7086838264785
669,18091,LaPorte,Indiana,-86.7423662187,41.5490215572,539.3895365562923
670,18093,Lawrence,Indiana,-86.4834511309,38.8411628915,560.4523771324815
671,18095,Madison,Indiana,-85.7193451682,40.1616556187,586.0609434404065
672,18097,Marion,Indiana,-86.1384716709,39.7817096805,549.2127639918676
673,18099,Marshall,Indiana,-86.2617612923,41.3248489608,574.0900292490498
674,18101,Martin,Indiana,-86.8030654716,38.7080111869,528.9709796481957
675,18103,Miami,Indiana,-86.0450230743,40.7695040098,540.5656017808228
676,18105,Monroe,Indiana,-86.5231372076,39.1609175598,596.9135830295168
677,18107,Montgomery,Indiana,-86.8932997962,40.0403785235,503.7593958092704
678,18109,Morgan,Indiana,-86.4462121421,39.4815483458,592.0642860861395
679,18111,Newton,Indiana,-87.3975365943,40.9558477436,542.2024249034621
680,18113,Noble,Indiana,-85.4174667322,41.3985995057,515.1356376055113
681,18115,Ohio,Indiana,-84.9650431209,38.9500945902,532.4073631656647
682,18117,Orange,Indiana,-86.4950692821,38.5417788857,538.180051757952
683,18119,Owen,Indiana,-86.8376542268,39.3128100483,576.7965018016899
684,18121,Parke,Indiana,-87.2063672164,39.7736200492,567.6419332515027
685,18123,Perry,Indiana,-86.6380317986,38.0796491352,513.6311908021753
686,18125,Pike,Indiana,-87.2321643219,38.3987832635,561.6376770518466
687,18127,Porter,Indiana,-87.0733191356,41.5088382943,582.3933035938608
688,18129,Posey,Indiana,-87.8684711826,38.0218915518,544.9094473788313
689,18131,Pulaski,Indiana,-86.6987792624,41.0418321081,542.675099719978
690,18133,Putnam,Indiana,-86.8449997676,39.6662617907,572.3441966369627
691,18135,Randolph,Indiana,-85.011310408,40.1576395642,521.9773259548887
692,18137,Ripley,Indiana,-85.262386374,39.1034546659,579.9199190926518
693,18139,Rush,Indiana,-85.4657611777,39.6199484364,592.3865340491482
694,18143,Scott,Indiana,-85.7474680992,38.6850699523,560.7459992251646
695,18145,Shelby,Indiana,-85.7917003981,39.5236921944,584.4493207869665
696,18147,Spencer,Indiana,-87.0077059131,38.0140589617,500.02073844902566
697,18149,Starke,Indiana,-86.6476485661,41.2809264377,544.1013987648547
698,18151,Steuben,Indiana,-85.000764854,41.6438678779,551.3016542970271
699,18153,Sullivan,Indiana,-87.4146903866,39.0888346851,579.6954630298782
700,18155,Switzerland,Indiana,-85.0369979159,38.8261607682,536.8073923275819
701,18157,Tippecanoe,Indiana,-86.8940974128,40.3886187334,540.8311951909845
702,18159,Tipton,Indiana,-86.0518589748,40.3113452381,592.1084890970053
703,18161,Union,Indiana,-84.9251420286,39.6255458453,500.96984344670136
704,18163,Vanderburgh,Indiana,-87.5857849635,38.0249578597,554.6812416003398
705,18165,Vermillion,Indiana,-87.4639782841,39.8538114574,562.0769755587648
706,18167,Vigo,Indiana,-87.3899644539,39.4306386001,574.4446129406058
707,18169,Wabash,Indiana,-85.7940056739,40.8456930058,585.6745622316214
708,18171,Warren,Indiana,-87.3533144839,40.3469033297,544.9858582376924
709,18173,Warrick,Indiana,-87.2720537447,38.0921662434,588.4070181681013
710,18175,Washington,Indiana,-86.1053059023,38.5999841735,510.7021922651527
711,18177,Wayne,Indiana,-85.0098761363,39.8644164614,516.0325848074259
712,18179,Wells,Indiana,-85.2212198576,40.7291866469,546.9409124675419
713,18181,White,Indiana,-86.8654694016,40.7497715932,555.3048246084835
714,18183,Whitley,Indiana,-85.505117935,41.1393753356,585.1786872285394
715,19001,Adair,Iowa,-94.4709413442,41.3307464286,500.4757621340011
716,19003,Adams,Iowa,-94.6991848828,41.0289838852,506.2080288986378
717,19005,Allamakee,Iowa,-91.3780922862,43.2842837871,538.8386234820781
718,19007,Appanoose,Iowa,-92.8686104167,40.74316347,580.8761686765924
719,19009,Audubon,Iowa,-94.905822196,41.6845893285,531.2903058641862
720,19011,Benton,Iowa,-92.0657317334,42.080174751,547.3014182634996
721,19015,Boone,Iowa,-93.9316370877,42.0365026335,545.2503788263718
722,19017,Bremer,Iowa,-92.3180548339,42.7745872458,515.2957054856183
723,19019,Buchanan,Iowa,-91.837842149,42.4707837931,518.8745092821925
724,19023,Butler,Iowa,-92.7901934384,42.7315661359,526.6916773493023
725,19025,Calhoun,Iowa,-94.6404136047,42.3851848526,503.84357632727415
726,19027,Carroll,Iowa,-94.8605592807,42.0362382229,597.9705452128655
727,19029,Cass,Iowa,-94.9278266277,41.331487609,512.0170172006691
728,19031,Cedar,Iowa,-91.1324230468,41.7723266607,559.5131546357627
729,19035,Cherokee,Iowa,-95.6238053959,42.7356225783,518.8145779675469
730,19037,Chickasaw,Iowa,-92.3176637461,43.0600413474,539.5631002630096
731,19039,Clarke,Iowa,-93.7851578386,41.0290322944,510.1126871136168
732,19041,Clay,Iowa,-95.1509194224,43.0825803991,562.5309858187458
733,19043,Clayton,Iowa,-91.3414327747,42.8447493088,594.7884674751745
734,19045,Clinton,Iowa,-90.5319724291,41.8980358084,570.1203012585463
735,19047,Crawford,Iowa,-95.3819677478,42.037212461,538.7637318757639
736,19049,Dallas,Iowa,-94.0397619265,41.6848582046,548.1568054840413
737,19051,Davis,Iowa,-92.4097172922,40.7476890807,589.9994530102407
738,19053,Decatur,Iowa,-93.7862814096,40.737682711,528.4865788753813
739,19055,Delaware,Iowa,-91.367341411,42.4712208979,500.7978834500888
740,19059,Dickinson,Iowa,-95.1508300608,43.3779847631,540.3873441322975
741,19061,Dubuque,Iowa,-90.8825218504,42.4688224327,578.8592458949464
742,19063,Emmet,Iowa,-94.6784802642,43.37802248,537.2129102595733
743,19065,Fayette,Iowa,-91.8443243326,42.8625961548,507.5608928410543
744,19067,Floyd,Iowa,-92.7890033704,43.0599208476,568.2677071538526
745,19069,Franklin,Iowa,-93.2624729913,42.7325458524,552.7757610942205
746,19071,Fremont,Iowa,-95.6046765408,40.7455891853,507.58997093350894
747,19073,Greene,Iowa,-94.3968169905,42.0362403729,512.7275379017543
748,19075,Grundy,Iowa,-92.7914177407,42.4018650655,544.3552106874565
749,19077,Guthrie,Iowa,-94.5010550107,41.6837548102,548.8356553751595
750,19079,Hamilton,Iowa,-93.7068096741,42.383771317,578.3742821246828
751,19081,Hancock,Iowa,-93.7342722978,43.0818860731,570.4767505006645
752,19083,Hardin,Iowa,-93.2404024994,42.3838803185,568.6668249699513
753,19085,Harrison,Iowa,-95.8169208876,41.6828527455,539.6206604061516
754,19087,Henry,Iowa,-91.5445322832,40.9879710088,573.1405072934978
755,19089,Howard,Iowa,-92.3171989039,43.3567673364,537.8131327851877
756,19091,Humboldt,Iowa,-94.2071830507,42.7764677574,587.218611229676
757,19093,Ida,Iowa,-95.5134961566,42.3868746602,559.5590171968728
758,19095,Iowa,Iowa,-92.0655240141,41.6863234292,506.9213590154125
759,19097,Jackson,Iowa,-90.5742293965,42.1717425857,535.7491629402141
760,19099,Jasper,Iowa,-93.0537645398,41.6860388529,567.33493142843
761,19101,Jefferson,Iowa,-91.9488728782,41.0317620678,531.2808894779321
762,19103,Johnson,Iowa,-91.5881018852,41.6715248584,564.2844576625691
763,19105,Jones,Iowa,-91.131465421,42.1212370657,539.6450484322859
764,19107,Keokuk,Iowa,-92.1786423155,41.3364654753,512.3134902996336
765,19109,Kossuth,Iowa,-94.2067199306,43.2041300298,512.774701681229
766,19111,Lee,Iowa,-91.4792643967,40.6419821705,577.8438449816041
767,19113,Linn,Iowa,-91.5990228598,42.0789535271,579.3673560608374
768,19115,Louisa,Iowa,-91.2596183012,41.2185070628,510.5822661356071
769,19117,Lucas,Iowa,-93.3277206567,41.0293737922,522.502160017363
770,19119,Lyon,Iowa,-96.2102923903,43.3804969625,598.3640474448569
771,19121,Madison,Iowa,-94.0155619459,41.3307142217,591.7869454518782
772,19123,Mahaska,Iowa,-92.6409093578,41.3352034594,550.3675266002654
773,19125,Marion,Iowa,-93.0994371546,41.3344518776,551.6535013394529
774,19127,Marshall,Iowa,-92.9987713463,42.0358492263,577.7127678703995
775,19129,Mills,Iowa,-95.621326718,41.0334522634,570.9174867091496
776,19131,Mitchell,Iowa,-92.7890314515,43.3564123717,507.42753068205104
777,19133,Monona,Iowa,-95.9599234782,42.0516662494,517.200141704773
778,19135,Monroe,Iowa,-92.8689876816,41.0297829981,540.6227984943616
779,19137,Montgomery,Iowa,-95.1563757716,41.0301399961,585.1757653139285
780,19139,Muscatine,Iowa,-91.1127562492,41.4839220534,567.5888267049804
781,19141,O'Brien,Iowa,-95.6248783386,43.0837526517,535.7488581997239
782,19143,Osceola,Iowa,-95.6236852015,43.3785703546,586.586327989974
783,19145,Page,Iowa,-95.1501748646,40.7391440172,591.2228345425974
784,19149,Plymouth,Iowa,-96.2140273941,42.7378473183,503.3161543661053
785,19151,Pocahontas,Iowa,-94.6787466122,42.7341351105,594.2718699067885
786,19153,Polk,Iowa,-93.5735335401,41.6855048252,516.4439727422557
787,19155,Pottawattamie,Iowa,-95.542393077,41.3366123482,517.0789790589015
788,19157,Poweshiek,Iowa,-92.531468397,41.6864421928,598.0700634103239
789,19159,Ringgold,Iowa,-94.2439719124,40.7352022993,507.6406290523065
790,19161,Sac,Iowa,-95.1053945569,42.3862603643,572.0836120496025
791,19163,Scott,Iowa,-90.6232428034,41.6370978319,581.260462016859
792,19165,Shelby,Iowa,-95.31021134,41.6850925934,568.5826017198852
793,19167,Sioux,Iowa,-96.1778828448,43.082617377,547.5852860955201
794,19169,Story,Iowa,-93.4650447654,42.0362414924,506.17996222605547
795,19171,Tama,Iowa,-92.5325425886,42.0798117536,563.8619183507772
796,19173,Taylor,Iowa,-94.6964147623,40.7374323606,588.4781669801515
797,19175,Union,Iowa,-94.2423791547,41.0277303995,581.8710007228822
798,19179,Wapello,Iowa,-92.4094498846,41.0305845373,597.7163117202404
799,19181,Warren,Iowa,-93.5613593647,41.334373461,592.305792614542
800,19183,Washington,Iowa,-91.7178701959,41.3356001857,543.3895577550969
801,19185,Wayne,Iowa,-93.3273638708,40.7394701918,571.7922534646297
802,19187,Webster,Iowa,-94.1817743675,42.4279491681,552.1739954635
803,19189,Winnebago,Iowa,-93.7341954719,43.3775677756,546.9859073956537
804,19191,Winneshiek,Iowa,-91.8437036051,43.2906788284,560.4982574660456
805,19193,Woodbury,Iowa,-96.0447949019,42.3897291621,511.0859957816971
806,19195,Worth,Iowa,-93.2608475497,43.3773984485,582.2707139176663
807,19197,Wright,Iowa,-93.7351436616,42.7331189884,560.3662636186103
808,20001,Allen,Kansas,-95.3013889295,37.8857349436,533.1414089796782
809,20003,Anderson,Kansas,-95.2933285252,38.2142048256,524.4685548335526
810,20005,Atchison,Kansas,-95.3134446486,39.5317400033,522.3959468124721
811,20007,Barber,Kansas,-98.684790626,37.2288385526,534.2848996024512
812,20009,Barton,Kansas,-98.756464293,38.4789639679,529.131143402645
813,20011,Bourbon,Kansas,-94.8492968396,37.8552256175,577.9415085137484
814,20013,Brown,Kansas,-95.5642196557,39.8264989183,529.6132720425971
815,20015,Butler,Kansas,-96.8390654617,37.7812707517,593.6537476177318
816,20017,Chase,Kansas,-96.593928638,38.3020458533,593.4142042389843
817,20019,Chautauqua,Kansas,-96.2453782628,37.1500572155,571.8666506135652
818,20021,Cherokee,Kansas,-94.8462689731,37.1693060628,511.2101617808046
819,20023,Cheyenne,Kansas,-101.731104218,39.7858693359,19.66411164360065
820,20025,Clark,Kansas,-99.8203076918,37.2355230437,526.7061266549955
821,20027,Clay,Kansas,-97.1651722307,39.3497164186,582.1053698591004
822,20029,Cloud,Kansas,-97.6492819059,39.4802974375,532.2346250482288
823,20031,Coffey,Kansas,-95.7341117812,38.2368379381,531.4203858340574
824,20033,Comanche,Kansas,-99.2718714746,37.1912804013,516.3268791798924
825,20035,Cowley,Kansas,-96.8374891769,37.2377526609,593.3259032064274
826,20037,Crawford,Kansas,-94.8518113711,37.5073151069,540.0391073529255
827,20039,Decatur,Kansas,-100.459899544,39.7847564917,26.14003304789537
828,20041,Dickinson,Kansas,-97.152702787,38.8665005829,515.2862032465338
829,20043,Doniphan,Kansas,-95.1467942431,39.7880806129,574.842006138522
830,20045,Douglas,Kansas,-95.2926063049,38.8846594528,553.4062315499331
831,20047,Edwards,Kansas,-99.3121708301,37.887648789,531.8794968471558
832,20049,Elk,Kansas,-96.2440866545,37.4536881105,561.781998851498
833,20051,Ellis,Kansas,-99.3172316232,38.9147512529,557.5823375394768
834,20053,Ellsworth,Kansas,-98.204730294,38.696627674,576.044867360336
835,20055,Finney,Kansas,-100.736990786,38.0443048231,12.382080641460542
836,20057,Ford,Kansas,-99.8879423784,37.6917036301,585.3561545100806
837,20059,Franklin,Kansas,-95.2859482396,38.5645174515,521.8194543494902
838,20061,Geary,Kansas,-96.7525021968,39.0023855083,583.4287177673843
839,20063,Gove,Kansas,-100.48290474,38.9160955531,24.00970323532531
840,20065,Graham,Kansas,-99.8832526271,39.349716037,505.7825103122124
841,20067,Grant,Kansas,-101.308021268,37.5621932698,5.395805095450755
842,20069,Gray,Kansas,-100.437862948,37.7381978567,6.111303161790191
843,20071,Greeley,Kansas,-101.805968435,38.4805374528,17.818866468253596
844,20073,Greenwood,Kansas,-96.2326356698,37.8777875638,569.4029287215841
845,20075,Hamilton,Kansas,-101.791256465,37.9991525438,23.791549351468618
846,20077,Harper,Kansas,-98.0754955835,37.191604867,548.4462291937234
847,20079,Harvey,Kansas,-97.4272714417,38.0432184802,519.3457773895844
848,20081,Haskell,Kansas,-100.871191808,37.5622507408,21.820067991129427
849,20083,Hodgeman,Kansas,-99.897935995,38.0874838474,597.4869814539569
850,20085,Jackson,Kansas,-95.793663658,39.416820119,565.9928490700075
851,20087,Jefferson,Kansas,-95.383448733,39.2357647667,581.1160587575953
852,20089,Jewell,Kansas,-98.2183408742,39.7847320849,518.9165901188215
853,20091,Johnson,Kansas,-94.8222610425,38.8837685125,599.3028568075786
854,20093,Kearny,Kansas,-101.31986081,38.00019653,13.836343484230897
855,20095,Kingman,Kansas,-98.1363325923,37.5588848204,534.1482848801543
856,20097,Kiowa,Kansas,-99.2860476017,37.5582639151,556.8794536650049
857,20099,Labette,Kansas,-95.297576142,37.1913273481,536.0458305492558
858,20101,Lane,Kansas,-100.466398449,38.4813047182,14.721728554379753
859,20103,Leavenworth,Kansas,-95.0379114409,39.1993345198,572.9566064566561
860,20105,Lincoln,Kansas,-98.2076985187,39.0453280683,527.5170378588234
861,20107,Linn,Kansas,-94.8429319755,38.2122718972,540.121777696167
862,20109,Logan,Kansas,-101.148391114,38.9173365456,6.895449566301785
863,20111,Lyon,Kansas,-96.1526397502,38.4561871377,521.1496459789432
864,20113,McPherson,Kansas,-97.6480798696,38.3916666453,578.8265789697174
865,20115,Marion,Kansas,-97.0968903589,38.3588724365,529.3614040119988
866,20117,Marshall,Kansas,-96.5229367542,39.7836260546,509.87033406616405
867,20119,Meade,Kansas,-100.36618026,37.2381964095,13.813128814162917
868,20121,Miami,Kansas,-94.838056975,38.5635832261,587.3386817825135
869,20123,Mitchell,Kansas,-98.2093648177,39.3932659263,575.9170109529722
870,20125,Montgomery,Kansas,-95.7428780841,37.1925238004,578.821228679208
871,20127,Morris,Kansas,-96.6498496136,38.6874292494,510.36045190452705
872,20129,Morton,Kansas,-101.799252231,37.1913959707,26.10208190951025
873,20131,Nemaha,Kansas,-96.0141016624,39.7834476063,562.5062161706288
874,20133,Neosho,Kansas,-95.3067923129,37.55848541,553.0746185816249
875,20135,Ness,Kansas,-99.9161797856,38.4794187776,522.7200546440857
876,20137,Norton,Kansas,-99.9034768772,39.7843853292,554.0431830047197
877,20139,Osage,Kansas,-95.726945141,38.6523289215,554.002817572938
878,20141,Osborne,Kansas,-98.7679898039,39.3503339996,505.2231671811558
879,20143,Ottawa,Kansas,-97.6502157692,39.132537495,588.6870923948959
880,20145,Pawnee,Kansas,-99.2367293489,38.181330775,524.0770174100754
881,20147,Phillips,Kansas,-99.347022123,39.7845831125,563.063814053832
882,20149,Pottawatomie,Kansas,-96.3423649942,39.3790027809,579.5739660729892
883,20151,Pratt,Kansas,-98.7395957092,37.6477353374,547.1518444933952
884,20153,Rawlins,Kansas,-101.075705109,39.785240911,2.163258499312267
885,20155,Reno,Kansas,-98.0860066564,37.9529528516,590.4013952914408
886,20157,Republic,Kansas,-97.6506227728,39.8277963216,576.7465638280833
887,20159,Rice,Kansas,-98.2010299558,38.3471428738,561.0722059209662
888,20161,Riley,Kansas,-96.7351769755,39.2965532011,599.0262763581247
889,20163,Rooks,Kansas,-99.3250571176,39.3502287543,503.76597578318405
890,20165,Rush,Kansas,-99.3092409497,38.5231613136,590.0807628762639
891,20167,Russell,Kansas,-98.7623510222,38.9147788411,531.0295406296864
892,20169,Saline,Kansas,-97.6499306446,38.7838065024,515.7905276299236
893,20171,Scott,Kansas,-100.906858956,38.482169359,28.170762856288544
894,20173,Sedgwick,Kansas,-97.4609686791,37.6847615589,520.9661203003416
895,20175,Seward,Kansas,-100.851287248,37.1933028033,23.24780840325377
896,20177,Shawnee,Kansas,-95.7565342577,39.0415137637,523.6976196547419
897,20179,Sheridan,Kansas,-100.441832361,39.3503577669,8.845138572013795
898,20181,Sherman,Kansas,-101.719980701,39.3514336872,3.780282131034911
899,20183,Smith,Kansas,-98.7854727927,39.785156359,529.8699407090537
900,20185,Stafford,Kansas,-98.7174450154,38.0309985368,503.03576440566235
901,20187,Stanton,Kansas,-101.784183191,37.5630613882,15.587400140424354
902,20189,Stevens,Kansas,-101.312046958,37.1923179509,21.842653881494883
903,20191,Sumner,Kansas,-97.4765502094,37.2372753377,555.593846680131
904,20193,Thomas,Kansas,-101.055531285,39.3509686024,1.8078196862144813
905,20195,Trego,Kansas,-99.8727358362,38.9143249144,596.2760094354752
906,20197,Wabaunsee,Kansas,-96.2050045391,38.9532912889,537.0359583981665
907,20199,Wallace,Kansas,-101.763574005,38.9166611398,27.892862251856382
908,20201,Washington,Kansas,-97.0875435237,39.7842012909,585.5799374229051
909,20203,Wichita,Kansas,-101.34735565,38.4820845404,13.832429426362658
910,20205,Wilson,Kansas,-95.7433888048,37.5592414881,568.6884585085993
911,20207,Woodson,Kansas,-95.7401677072,37.886670206,525.3852657575779
912,20209,Wyandotte,Kansas,-94.7644784215,39.1146453374,546.5935876819717
913,21001,Adair,Kentucky,-85.2806497629,37.1041534526,501.29815270584305
914,21003,Allen,Kentucky,-86.1904186693,36.7513165534,580.4957170225034
915,21005,Anderson,Kentucky,-84.9910045711,38.0039134141,541.2716473207141
916,21007,Ballard,Kentucky,-88.9993411296,37.0584319295,581.4440587455708
917,21009,Barren,Kentucky,-85.9336633247,36.9655811681,505.20629515349435
918,21011,Bath,Kentucky,-83.74266722,38.1449736906,529.7262431162535
919,21013,Bell,Kentucky,-83.6740950601,36.7306482485,555.1520989944862
920,21015,Boone,Kentucky,-84.727848116,38.969864478,568.9356015214053
921,21017,Bourbon,Kentucky,-84.2171399549,38.2067299514,580.7702780797586
922,21019,Boyd,Kentucky,-82.6877258112,38.3595724655,575.045732910761
923,21021,Boyle,Kentucky,-84.8668203815,37.6243602285,568.528085477523
924,21023,Bracken,Kentucky,-84.0901906655,38.688812974,558.5649941115493
925,21025,Breathitt,Kentucky,-83.3240853027,37.5216171391,567.9791165769304
926,21027,Breckinridge,Kentucky,-86.4292775361,37.7732676848,578.8336957862757
927,21029,Bullitt,Kentucky,-85.6958570326,37.9700757707,533.4129546346912
928,21031,Butler,Kentucky,-86.68175556,37.2072808133,599.6537767114637
929,21033,Caldwell,Kentucky,-87.8679057735,37.1453332323,599.9512186034721
930,21035,Calloway,Kentucky,-88.2722011175,36.6211012796,517.7174581174597
931,21037,Campbell,Kentucky,-84.3796958206,38.9464767816,586.0307147370257
932,21039,Carlisle,Kentucky,-88.9710587868,36.8532163803,512.486632964389
933,21041,Carroll,Kentucky,-85.123590032,38.6678584122,510.06576552218155
934,21043,Carter,Kentucky,-83.0495338272,38.318172839,579.5993581458259
935,21045,Casey,Kentucky,-84.9283681524,37.3222824489,517.5052800496068
936,21047,Christian,Kentucky,-87.4903805625,36.8941807353,581.9041218239313
937,21049,Clark,Kentucky,-84.1473994082,37.9708518682,500.75492167171865
938,21051,Clay,Kentucky,-83.714662683,37.1596975589,527.6724030381532
939,21053,Clinton,Kentucky,-85.1360135602,36.7274816255,586.7902559295931
940,21055,Crittenden,Kentucky,-88.0972226536,37.3527152683,564.2711491985316
941,21057,Cumberland,Kentucky,-85.3884485912,36.7865296888,504.59325041248684
942,21059,Daviess,Kentucky,-87.0872269242,37.731772508,578.5310299795758
943,21061,Edmonson,Kentucky,-86.2386201495,37.2088402055,549.0384656465133
944,21063,Elliott,Kentucky,-83.0976163428,38.1178916805,542.957274706428
945,21065,Estill,Kentucky,-83.9643302311,37.6924814699,537.2211511235269
946,21067,Fayette,Kentucky,-84.4587221937,38.0423302608,564.0799953280454
947,21069,Fleming,Kentucky,-83.6966440772,38.3701068106,526.0228620668582
948,21071,Floyd,Kentucky,-82.7457041434,37.5571085124,594.2204344958118
949,21073,Franklin,Kentucky,-84.8770681668,38.2391477444,578.6862113460663
950,21075,Fulton,Kentucky,-89.1875965868,36.5540721406,534.9427991253488
951,21077,Gallatin,Kentucky,-84.8593123857,38.7568746647,585.3803039320669
952,21079,Garrard,Kentucky,-84.5376342293,37.6395779036,533.234185786209
953,21081,Grant,Kentucky,-84.6246133807,38.6488155619,557.2620169131807
954,21083,Graves,Kentucky,-88.6512057677,36.7231381944,562.6015481144233
955,21085,Grayson,Kentucky,-86.3438765333,37.4608189464,515.3334935149314
956,21087,Green,Kentucky,-85.5531056748,37.2641094188,505.90397489141026
957,21089,Greenup,Kentucky,-82.9222922454,38.5456646906,527.0992645372136
958,21091,Hancock,Kentucky,-86.7779252067,37.8415087294,510.0353313956178
959,21093,Hardin,Kentucky,-85.9633719015,37.6979246033,500.2869371282596
960,21095,Harlan,Kentucky,-83.2179510399,36.8569745004,536.7726162315788
961,21097,Harrison,Kentucky,-84.3313958343,38.4418035091,530.9188731921965
962,21099,Hart,Kentucky,-85.8847094016,37.29992674,501.29603578290784
963,21101,Henderson,Kentucky,-87.5731516422,37.7958423573,507.91721291248933
964,21103,Henry,Kentucky,-85.1189299735,38.448468036,591.3386362718597
965,21105,Hickman,Kentucky,-88.9762156953,36.6781704977,562.0642578966524
966,21107,Hopkins,Kentucky,-87.540842137,37.3088201365,572.3999732550283
967,21109,Jackson,Kentucky,-84.0057660473,37.4197763873,503.6875072174267
968,21111,Jefferson,Kentucky,-85.6591577058,38.1871910002,505.90833629568914
969,21113,Jessamine,Kentucky,-84.5809372528,37.872051318,570.3390869910124
970,21115,Johnson,Kentucky,-82.8315397747,37.8466393565,523.4312292180455
971,21117,Kenton,Kentucky,-84.5333168381,38.9334528592,568.0971422321805
972,21119,Knott,Kentucky,-82.9541313398,37.3540523996,507.70660726385375
973,21121,Knox,Kentucky,-83.854045282,36.8906660574,506.2616910091577
974,21125,Laurel,Kentucky,-84.11780032,37.1106705529,550.3113938805127
975,21127,Lawrence,Kentucky,-82.7347546613,38.0678786159,540.718322522504
976,21129,Lee,Kentucky,-83.7162777687,37.5947979696,569.2652276276796
977,21131,Leslie,Kentucky,-83.3811399511,37.0940663146,533.4028906750058
978,21133,Letcher,Kentucky,-82.8552822542,37.1211921397,533.6930859951588
979,21135,Lewis,Kentucky,-83.3780560683,38.5315416285,586.7190579156953
980,21137,Lincoln,Kentucky,-84.6608453633,37.4553667663,529.0762192883086
981,21139,Livingston,Kentucky,-88.3538137781,37.2097032695,506.32862046446456
982,21141,Logan,Kentucky,-86.8789382363,36.8596987837,539.213525863525
983,21143,Lyon,Kentucky,-88.0832815032,37.0191301368,544.7108436510428
984,21145,McCracken,Kentucky,-88.71271926,37.0540793189,564.5447310559199
985,21147,McCreary,Kentucky,-84.4841745377,36.7371415587,531.2386300738982
986,21149,McLean,Kentucky,-87.2636042463,37.5291899516,523.981458374024
987,21151,Madison,Kentucky,-84.2779980048,37.7201835062,597.8173225974147
988,21153,Magoffin,Kentucky,-83.0649145355,37.7064741502,537.4478802971167
989,21155,Marion,Kentucky,-85.2696313766,37.5525344711,529.6112738416488
990,21157,Marshall,Kentucky,-88.3293805253,36.8834465874,572.5940504670881
991,21159,Martin,Kentucky,-82.5132925147,37.8015772072,552.2363162849372
992,21161,Mason,Kentucky,-83.8242451537,38.5951729912,521.9776839134666
993,21163,Meade,Kentucky,-86.2171786433,37.9698391666,576.7289848603986
994,21165,Menifee,Kentucky,-83.5988719199,37.9413779683,517.2878068830157
995,21167,Mercer,Kentucky,-84.8744366862,37.8110307874,520.2251381779392
996,21169,Metcalfe,Kentucky,-85.6292510918,36.9905417852,531.620271169937
997,21171,Monroe,Kentucky,-85.7165195846,36.712180279,581.0021372705418
998,21173,Montgomery,Kentucky,-83.913088975,38.0335228018,556.8733645729814
999,21175,Morgan,Kentucky,-83.2588931268,37.9222809093,568.7267668935611
1000,21177,Muhlenberg,Kentucky,-87.142041664,37.2157922672,582.2269724420349
1001,21179,Nelson,Kentucky,-85.4659885855,37.805131267,503.61340885873136
1002,21181,Nicholas,Kentucky,-84.0153305006,38.3355978163,591.690900684236
1003,21183,Ohio,Kentucky,-86.8488901965,37.478191684,599.0118552596349
1004,21185,Oldham,Kentucky,-85.4483655316,38.3994422236,545.0219476549047
1005,21187,Owen,Kentucky,-84.8281098255,38.5196362585,555.9303154075
1006,21189,Owsley,Kentucky,-83.6831118762,37.4192050035,587.0373710895062
1007,21191,Pendleton,Kentucky,-84.3602721797,38.6956276543,587.9727306645676
1008,21193,Perry,Kentucky,-83.2214816028,37.2442933233,566.0175216434552
1009,21195,Pike,Kentucky,-82.3958631537,37.4690483094,546.1458113580136
1010,21197,Powell,Kentucky,-83.823774583,37.8311453235,559.0211210309932
1011,21199,Pulaski,Kentucky,-84.5771762961,37.1039268916,524.0110784334425
1012,21201,Robertson,Kentucky,-84.0520241975,38.5188144389,544.8498604499574
1013,21203,Rockcastle,Kentucky,-84.3159414648,37.3651781719,586.5303171743974
1014,21205,Rowan,Kentucky,-83.4210754055,38.1962558627,572.3067133268261
1015,21207,Russell,Kentucky,-85.0586875538,36.991034312,525.5011194264058
1016,21209,Scott,Kentucky,-84.5839338937,38.291547316,557.4422229464063
1017,21211,Shelby,Kentucky,-85.1947770123,38.2154382436,542.8086750949661
1018,21213,Simpson,Kentucky,-86.582320534,36.7419423399,586.9888006813461
1019,21215,Spencer,Kentucky,-85.3278488189,38.0325101344,590.7679354348056
1020,21217,Taylor,Kentucky,-85.3278346717,37.3664545067,525.3971148225804
1021,21219,Todd,Kentucky,-87.1791532892,36.8355562279,578.9634859541359
1022,21221,Trigg,Kentucky,-87.8733713765,36.8063197395,526.4918349560895
1023,21223,Trimble,Kentucky,-85.3375681071,38.6130327476,513.4706052662888
1024,21225,Union,Kentucky,-87.9453835494,37.6584480026,560.7703081251999
1025,21227,Warren,Kentucky,-86.4237993498,36.9935767676,583.654950567198
1026,21229,Washington,Kentucky,-85.1747465425,37.753378564,560.4341209511026
1027,21231,Wayne,Kentucky,-84.828631199,36.8012652397,509.0107651809152
1028,21233,Webster,Kentucky,-87.6831570963,37.5184174771,578.3028563288335
1029,21235,Whitley,Kentucky,-84.145177727,36.7580732628,503.69156168148504
1030,21237,Wolfe,Kentucky,-83.4931751504,37.7393195914,555.6628354048612
1031,21239,Woodford,Kentucky,-84.7436031459,38.0423908286,557.2245396799383
1032,22001,Acadia,Louisiana,-92.4119791169,30.2905333588,580.2587021821492
1033,22003,Allen,Louisiana,-92.8278792297,30.6528705338,520.9292673338192
1034,22005,Ascension,Louisiana,-90.9112912896,30.2035444978,576.5819382769549
1035,22007,Assumption,Louisiana,-91.0625868595,29.9007722759,511.5665016108676
1036,22009,Avoyelles,Louisiana,-92.001376741,31.07624372,545.9137465483362
1037,22011,Beauregard,Louisiana,-93.343338993,30.6484687349,502.9130022897844
1038,22013,Bienville,Louisiana,-93.0559517637,32.3472191955,504.24191729104064
1039,22015,Bossier,Louisiana,-93.6050459212,32.6789310276,522.9297954828688
1040,22017,Caddo,Louisiana,-93.8823968489,32.5801941764,595.7220773645124
1041,22019,Calcasieu,Louisiana,-93.3579451616,30.2292239003,516.463378211056
1042,22021,Caldwell,Louisiana,-92.1166058761,32.0922715486,514.3737750850615
1043,22023,Cameron,Louisiana,-93.1988964755,29.8468719706,584.326262241422
1044,22025,Catahoula,Louisiana,-91.8470716058,31.6661684568,599.0155471338068
1045,22027,Claiborne,Louisiana,-92.9957332424,32.822693435,508.5926537310347
1046,22029,Concordia,Louisiana,-91.6400549956,31.445835936,584.025494653689
1047,22039,Evangeline,Louisiana,-92.4059042007,30.7289364182,531.2992888250328
1048,22041,Franklin,Louisiana,-91.6737652244,32.1332163406,528.9427672417892
1049,22043,Grant,Louisiana,-92.5595204513,31.599703679,578.8117865924529
1050,22045,Iberia,Louisiana,-91.7630555512,29.7564998487,522.997700704038
1051,22047,Iberville,Louisiana,-91.3493631932,30.2584988738,589.7381932124488
1052,22049,Jackson,Louisiana,-92.5577401117,32.3020349252,523.1078113313482
1053,22051,Jefferson,Louisiana,-90.0977653992,29.6774585804,542.7067129129789
1054,22053,Jefferson,Louisiana,-90.0977653992,29.6774585804,535.966308512536
1055,22055,Lafayette,Louisiana,-92.0638821244,30.2067729534,571.6346103844045
1056,22057,Lafourche,Louisiana,-90.402594527,29.5003322407,547.7391372215333
1057,22059,LaSalle,Louisiana,-92.1604365033,31.6767316888,509.7346340460253
1058,22061,Lincoln,Louisiana,-92.6648152839,32.6016373737,583.8954134871199
1059,22063,Livingston,Louisiana,-90.7279074417,30.4401362441,567.6411344272849
1060,22065,Madison,Louisiana,-91.2425796995,32.3644009947,510.2588986197261
1061,22067,Morehouse,Louisiana,-91.801797046,32.8202181268,538.4357540709954
1062,22069,Natchitoches,Louisiana,-93.0962433857,31.7235401557,553.7572650677671
1063,22071,Orleans,Louisiana,-89.928127921,30.0686436991,543.0608400997062
1064,22073,Ouachita,Louisiana,-92.1548701323,32.4783131468,568.4235857826909
1065,22075,Plaquemines,Louisiana,-89.4819150635,29.3806620653,536.5791934842614
1066,22079,Rapides,Louisiana,-92.5331996257,31.1986202778,578.1441843932539
1067,22083,Richland,Louisiana,-91.7634818429,32.4177916678,534.2182373172049
1068,22085,Sabine,Louisiana,-93.5546968685,31.5640129586,506.2921168855764
1069,22105,Tangipahoa,Louisiana,-90.4056805267,30.6266523214,531.2262559511317
1070,22107,Tensas,Louisiana,-91.3400729965,32.0016607751,583.7029639750004
1071,22109,Terrebonne,Louisiana,-90.8376399064,29.3374418892,529.6216712584046
1072,22111,Union,Louisiana,-92.3748055749,32.8318884986,595.0031371136013
1073,22113,Vermilion,Louisiana,-92.304282947,29.8093893174,553.9287978358573
1074,22115,Vernon,Louisiana,-93.1841466986,31.1082936995,508.02924613424386
1075,22117,Washington,Louisiana,-90.0405268831,30.8533433125,586.6111572981611
1076,22119,Webster,Louisiana,-93.3349833098,32.7134544164,574.089355826562
1077,22127,Winn,Louisiana,-92.6367652262,31.944249197,520.0209130430018
1078,23001,Androscoggin,Maine,-70.206444997,44.1658484298,541.5430858665499
1079,23003,Aroostook,Maine,-68.5988785527,46.6588181292,587.0048747647287
1080,23005,Cumberland,Maine,-70.3302006275,43.8060821062,568.7606344924194
1081,23007,Franklin,Maine,-70.4440737272,44.9741566636,525.7894683888029
1082,23009,Hancock,Maine,-68.3682079676,44.5628867649,537.7894701931481
1083,23011,Kennebec,Maine,-69.767264396,44.4091601365,548.475630499498
1084,23013,Knox,Maine,-69.015547485,44.0272987421,531.6967391238807
1085,23015,Lincoln,Maine,-69.5257592569,43.997787332,537.3345191318327
1086,23017,Oxford,Maine,-70.7565745217,44.499782046,519.258736099306
1087,23019,Penobscot,Maine,-68.6494281289,45.4005123213,538.7018207406757
1088,23021,Piscataquis,Maine,-69.2845234425,45.8373643273,546.9434543965066
1089,23023,Sagadahoc,Maine,-69.8393089562,43.9117268938,566.641467423672
1090,23025,Somerset,Maine,-69.9588160836,45.5138551635,559.3657311401499
1091,23027,Waldo,Maine,-69.1218807819,44.4852469436,563.0899600919943
1092,23029,Washington,Maine,-67.6090594873,44.9694591011,554.1248069017495
1093,23031,York,Maine,-70.6701460671,43.4292261998,530.3531744385174
1094,24001,Allegany,Maryland,-78.6975385506,39.6214732187,566.6356386178422
1095,24005,Baltimore,Maryland,-76.610646905,39.3009797143,509.55636338875075
1096,24009,Calvert,Maryland,-76.5305644689,38.5347120041,532.2069916766958
1097,24011,Caroline,Maryland,-75.8316009642,38.8717218127,504.19278867517795
1098,24013,Carroll,Maryland,-77.0225227247,39.5628541642,576.7473086552244
1099,24015,Cecil,Maryland,-75.9481069728,39.5624202546,562.5622874630368
1100,24017,Charles,Maryland,-77.0134840998,38.4736812339,521.649259049856
1101,24019,Dorchester,Maryland,-76.0833253109,38.4226080428,526.183196588319
1102,24021,Frederick,Maryland,-77.3979843347,39.4722125305,559.553211665262
1103,24023,Garrett,Maryland,-79.2729932831,39.5288947088,585.1515332918761
1104,24025,Harford,Maryland,-76.2988753861,39.5364361834,570.1401129557639
1105,24027,Howard,Maryland,-76.9311943444,39.2507169303,509.7214783539439
1106,24029,Kent,Maryland,-76.0958206019,39.2356038944,558.8763847297078
1107,24031,Montgomery,Maryland,-77.2042373226,39.1363621482,515.6290161268264
1108,24039,Somerset,Maryland,-75.8534705783,38.080066116,559.4637845912101
1109,24041,Talbot,Maryland,-76.1786170603,38.7491001783,524.3957659600569
1110,24043,Washington,Maryland,-77.8139806631,39.6036746811,501.02741288669483
1111,24045,Wicomico,Maryland,-75.6315310797,38.3694102763,571.160000228619
1112,24047,Worcester,Maryland,-75.2966708247,38.2164999843,550.1215024459937
1113,24510,Baltimore,Maryland,-76.610646905,39.3009797143,592.2984771470295
1114,25001,Barnstable,Massachusetts,-70.2381374923,41.7734492735,559.839246578791
1115,25003,Berkshire,Massachusetts,-73.2064122879,42.3706766098,551.150184912601
1116,25005,Bristol,Massachusetts,-71.0885008559,41.7570882119,564.8923408044183
1117,25007,Dukes,Massachusetts,-70.6987715777,41.3887747357,573.8068787782519
1118,25009,Essex,Massachusetts,-70.8679199556,42.638915376,597.8780822061874
1119,25011,Franklin,Massachusetts,-72.5918576846,42.5831156958,592.6147313808974
1120,25013,Hampden,Massachusetts,-72.6316491133,42.1351123414,572.3070990636011
1121,25015,Hampshire,Massachusetts,-72.6637844853,42.3401529673,504.31094726277024
1122,25017,Middlesex,Massachusetts,-71.3917424712,42.48553813,504.4541408305734
1123,25021,Norfolk,Massachusetts,-71.1838291807,42.1709806276,585.6031804535821
1124,25023,Plymouth,Massachusetts,-70.7370759268,41.9874357661,580.903192814447
1125,25025,Suffolk,Massachusetts,-70.9856096697,42.3486893925,506.9447685815736
1126,25027,Worcester,Massachusetts,-71.9077266261,42.3513950817,591.1612718403585
1127,26001,Alcona,Michigan,-83.1290075152,44.6836233781,535.9004761972692
1128,26003,Alger,Michigan,-86.5721601717,46.9482692108,594.2178859322901
1129,26005,Allegan,Michigan,-86.2917651855,42.5936732732,565.5593662230341
1130,26007,Alpena,Michigan,-83.1652010912,45.0311075069,507.20541610627623
1131,26009,Antrim,Michigan,-85.1758221578,45.0073838126,556.6548810621192
1132,26011,Arenac,Michigan,-83.7472418424,44.0428854726,550.3158366323452
1133,26013,Baraga,Michigan,-88.3521803449,46.6997094485,584.1692984185804
1134,26015,Barry,Michigan,-85.3089680839,42.5950284307,516.9308403487753
1135,26017,Bay,Michigan,-83.9418350885,43.7213655935,542.3107799672252
1136,26019,Benzie,Michigan,-86.3006262039,44.6445874689,581.5903492509469
1137,26021,Berrien,Michigan,-86.6854211599,41.9957776876,575.9681475066684
1138,26023,Branch,Michigan,-85.0590443604,41.9161186535,580.5726661368375
1139,26025,Calhoun,Michigan,-85.0055834874,42.2465394718,538.3162349343157
1140,26027,Cass,Michigan,-85.9934577475,41.9154003329,556.3109694033019
1141,26029,Charlevoix,Michigan,-85.373250216,45.5024976764,506.1090633535365
1142,26031,Cheboygan,Michigan,-84.492064415,45.4729404291,551.851985727344
1143,26033,Chippewa,Michigan,-84.5293679243,46.3281784324,598.0217555119037
1144,26035,Clare,Michigan,-84.8478607548,43.9878918655,526.935777957685
1145,26037,Clinton,Michigan,-84.6015165533,42.9436523662,529.7913686745534
1146,26039,Crawford,Michigan,-84.6103371078,44.6836111689,560.4254913701419
1147,26041,Delta,Michigan,-86.8705966508,45.7916364577,577.0949777030308
1148,26043,Dickinson,Michigan,-87.8702584456,46.0092394572,530.4100575159106
1149,26045,Eaton,Michigan,-84.8383148406,42.596069775,580.6566551835134
1150,26047,Emmet,Michigan,-84.9814699602,45.5875424692,504.4224410418314
1151,26049,Genesee,Michigan,-83.7067110419,43.0217229031,573.5043916026862
1152,26051,Gladwin,Michigan,-84.3882463136,43.9906739447,556.6567689680667
1153,26053,Gogebic,Michigan,-89.7954717926,46.4954898595,592.6896988108988
1154,26057,Gratiot,Michigan,-84.6049110538,43.2927326789,545.8949956875668
1155,26059,Hillsdale,Michigan,-84.5929278019,41.8877674933,526.3181499684688
1156,26061,Houghton,Michigan,-88.6520579518,46.9915439408,567.2380236273116
1157,26063,Huron,Michigan,-82.8555082084,43.9100683718,542.0689713194452
1158,26065,Ingham,Michigan,-84.3735369769,42.5970991967,502.67717482380067
1159,26067,Ionia,Michigan,-85.0746031181,42.9450938315,556.6748668679825
1160,26069,Iosco,Michigan,-83.0853006647,44.3370929481,586.9118023531572
1161,26071,Iron,Michigan,-88.5305528694,46.2086670875,543.3934387832622
1162,26073,Isabella,Michigan,-84.8467965535,43.6406015599,590.2999996182353
1163,26075,Jackson,Michigan,-84.423437303,42.2484873981,584.4212244060728
1164,26077,Kalamazoo,Michigan,-85.5311845383,42.2454540023,572.3731042596697
1165,26079,Kalkaska,Michigan,-85.0902500996,44.6846764139,579.5736726974568
1166,26081,Kent,Michigan,-85.549296283,43.0321563061,536.7457710277783
1167,26083,Keweenaw,Michigan,-88.2521508057,47.7152823036,538.8723744533489
1168,26085,Lake,Michigan,-85.8016452398,43.9900669341,538.0476403337002
1169,26087,Lapeer,Michigan,-83.2217837238,43.0901474299,597.5377245017904
1170,26089,Leelanau,Michigan,-86.0384960523,45.151770859,599.936243737663
1171,26091,Lenawee,Michigan,-84.0663667481,41.8950837577,593.7546154136146
1172,26093,Livingston,Michigan,-83.9115277453,42.6029174357,535.3605632046016
1173,26095,Luce,Michigan,-85.564118869,46.7140170601,556.3985289749784
1174,26097,Mackinac,Michigan,-85.0094165914,45.9989328531,537.0500242142506
1175,26099,Macomb,Michigan,-82.9101752594,42.6727950993,591.5055066180461
1176,26101,Manistee,Michigan,-86.3641128583,44.3428004034,586.5769179523986
1177,26103,Marquette,Michigan,-87.5735241034,46.6628779661,545.8350588811403
1178,26105,Mason,Michigan,-86.5450922685,43.99606769,526.1320407341466
1179,26107,Mecosta,Michigan,-85.3246335487,43.6407681919,587.7361062288235
1180,26109,Menominee,Michigan,-87.5096840021,45.5251213571,517.4880545732094
1181,26111,Midland,Michigan,-84.3881091147,43.6468567079,513.7655216860383
1182,26113,Missaukee,Michigan,-85.0946817376,44.3373203725,569.4196113753926
1183,26115,Monroe,Michigan,-83.4942863604,41.9213775211,596.5296149722201
1184,26117,Montcalm,Michigan,-85.15248111,43.3109397092,501.77103190764973
1185,26119,Montmorency,Michigan,-84.127204086,45.0275448913,598.7420070189393
1186,26121,Muskegon,Michigan,-86.5352341115,43.2899298863,511.69061699602037
1187,26123,Newaygo,Michigan,-85.8009172937,43.5541675519,566.2545528991739
1188,26125,Oakland,Michigan,-83.385817604,42.6603998737,512.4644626064123
1189,26127,Oceana,Michigan,-86.5817719968,43.6446171312,537.8516335149803
1190,26129,Ogemaw,Michigan,-84.1264136573,44.3349392585,572.0822669095513
1191,26131,Ontonagon,Michigan,-89.4347315443,47.0221845765,556.1499714648116
1192,26133,Osceola,Michigan,-85.3252875939,43.9898287022,571.6595375318617
1193,26135,Oscoda,Michigan,-84.1297714192,44.6817581821,539.5408572543239
1194,26137,Otsego,Michigan,-84.5989931681,45.0214343278,543.7440134662794
1195,26139,Ottawa,Michigan,-86.4218821702,42.948534903,543.0694135879197
1196,26143,Roscommon,Michigan,-84.6115999116,44.335608598,509.50761931052983
1197,26145,Saginaw,Michigan,-84.0531870389,43.3350287366,553.4144877224873
1198,26151,Sanilac,Michigan,-82.6457538571,43.4433116085,508.71500878004844
1199,26153,Schoolcraft,Michigan,-86.1772944904,46.0424798151,581.3148113330407
1200,26155,Shiawassee,Michigan,-84.1467311037,42.9537338684,523.3063245821755
1201,26157,Tuscola,Michigan,-83.4398685744,43.4913425333,509.80773895719324
1202,26161,Washtenaw,Michigan,-83.83877051,42.2532253491,503.792320547599
1203,26163,Wayne,Michigan,-83.2611328686,42.2847454761,551.8290871177237
1204,26165,Wexford,Michigan,-85.5784138137,44.3383668115,550.2491268665918
1205,27001,Aitkin,Minnesota,-93.4154290883,46.6082572906,510.52472590175694
1206,27003,Anoka,Minnesota,-93.2464685787,45.2732429118,546.9863134651432
1207,27005,Becker,Minnesota,-95.673923543,46.9346483657,596.979104049957
1208,27007,Beltrami,Minnesota,-94.9376544511,47.9737829027,566.8080013583273
1209,27009,Benton,Minnesota,-93.9988297843,45.6991358622,587.7504812479262
1210,27015,Brown,Minnesota,-94.7275713188,44.2421397159,512.3364815996568
1211,27017,Carlton,Minnesota,-92.6770526205,46.592401392,577.1480558683978
1212,27019,Carver,Minnesota,-93.8025859879,44.82075943,530.7958645405542
1213,27021,Cass,Minnesota,-94.3253505738,46.9496014257,545.9022406190187
1214,27023,Chippewa,Minnesota,-95.5667047202,45.0223609495,514.6969314623955
1215,27025,Chisago,Minnesota,-92.9083421514,45.5024730826,595.589799619224
1216,27027,Clay,Minnesota,-96.4906494764,46.8923435535,597.0757237270396
1217,27029,Clearwater,Minnesota,-95.3790237804,47.5776534848,512.2156462102276
1218,27031,Cook,Minnesota,-90.3859738837,47.726661247,555.6623055887875
1219,27033,Cottonwood,Minnesota,-95.1811530449,44.0071075264,529.7583864806819
1220,27037,Dakota,Minnesota,-93.0654245878,44.6718744229,515.9157813575778
1221,27039,Dodge,Minnesota,-92.8620540343,44.0225894661,553.8699831997045
1222,27041,Douglas,Minnesota,-95.453523681,45.9337163348,592.374887528299
1223,27043,Faribault,Minnesota,-93.947999339,43.6739283199,543.0181210458392
1224,27045,Fillmore,Minnesota,-92.0901672654,43.6739971693,509.8729164053942
1225,27047,Freeborn,Minnesota,-93.3488158578,43.6738441803,526.5099355211846
1226,27049,Goodhue,Minnesota,-92.7229029989,44.4096825746,595.8181049154882
1227,27051,Grant,Minnesota,-96.0121840981,45.934046167,511.7099751300087
1228,27053,Hennepin,Minnesota,-93.4768864968,45.0045756364,521.8578698423588
1229,27055,Houston,Minnesota,-91.4928319425,43.6714440477,592.524989512467
1230,27057,Hubbard,Minnesota,-94.9166206034,47.108629802,538.7007561368173
1231,27059,Isanti,Minnesota,-93.2951672181,45.5614793413,586.134770264228
1232,27061,Itasca,Minnesota,-93.6320085311,47.5095252347,591.9585286821006
1233,27063,Jackson,Minnesota,-95.1541129519,43.6741733017,598.2901950166697
1234,27065,Kanabec,Minnesota,-93.2934250568,45.9452167902,519.4397512106231
1235,27067,Kandiyohi,Minnesota,-95.0047424624,45.1523823451,559.7537935127284
1236,27069,Kittson,Minnesota,-96.7828440349,48.7766295653,525.572123563283
1237,27071,Koochiching,Minnesota,-93.7833663013,48.2452683995,505.7390217174191
1238,27075,Lake,Minnesota,-91.4088486044,47.5231709536,573.2676046682216
1239,27077,Lake,Minnesota,-91.4088486044,47.5231709536,592.71152972858
1240,27081,Lincoln,Minnesota,-96.2670873079,44.4125964168,501.35679973640754
1241,27083,Lyon,Minnesota,-95.8389749015,44.4134915893,521.8720051941037
1242,27085,McLeod,Minnesota,-94.2724202106,44.8235439383,594.555316669519
1243,27087,Mahnomen,Minnesota,-95.8090496343,47.3252360192,539.8884154330113
1244,27089,Marshall,Minnesota,-96.3684743899,48.3581259624,563.0886121393884
1245,27091,Martin,Minnesota,-94.551070329,43.6743620902,573.0781565559005
1246,27093,Meeker,Minnesota,-94.5273094656,45.1231152442,591.9177237582799
1247,27097,Morrison,Minnesota,-94.2684153059,46.0126176925,577.6063737516638
1248,27099,Mower,Minnesota,-92.7525135871,43.6714700417,574.9768427577775
1249,27101,Murray,Minnesota,-95.7632758339,44.0221214974,533.5119598828331
1250,27103,Nicollet,Minnesota,-94.2473892814,44.3498776053,536.8297209381756
1251,27105,Nobles,Minnesota,-95.7533863657,43.6742397821,584.6071057254952
1252,27107,Norman,Minnesota,-96.4552777398,47.3264761642,558.8690238640726
1253,27109,Olmsted,Minnesota,-92.401770932,44.0037525074,591.4405669182194
1254,27113,Pennington,Minnesota,-96.0366682912,48.0662320513,501.92345222341754
1255,27115,Pine,Minnesota,-92.7412705154,46.120767065,598.4287761563883
1256,27117,Pipestone,Minnesota,-96.2586448321,44.0229951536,537.2294675304421
1257,27119,Polk,Minnesota,-96.4018033447,47.773853549,500.73604619167156
1258,27121,Pope,Minnesota,-95.4444821595,45.5860205994,541.4062631617257
1259,27123,Ramsey,Minnesota,-93.099606274,45.0170541432,540.7055713676433
1260,27127,Redwood,Minnesota,-95.2538341808,44.4036612077,542.8613917289522
1261,27129,Renville,Minnesota,-94.9471503059,44.7268149012,518.7073772023808
1262,27131,Rice,Minnesota,-93.2966783051,44.3542643029,576.3667454270293
1263,27133,Rock,Minnesota,-96.2532076471,43.6746303972,575.3334969437406
1264,27135,Roseau,Minnesota,-95.8108171586,48.7751394251,554.9729639128973
1265,27139,Scott,Minnesota,-93.5358982367,44.6484737252,574.0351524406376
1266,27141,Sherburne,Minnesota,-93.7745948671,45.4439531217,556.1857189247153
1267,27143,Sibley,Minnesota,-94.2321420772,44.5794783729,572.3564249075187
1268,27145,Stearns,Minnesota,-94.6130114109,45.5521529589,559.6271140263924
1269,27147,Steele,Minnesota,-93.2260411098,44.022343746,513.8998842981753
1270,27149,Stevens,Minnesota,-96.0003022919,45.5861252834,569.656288017716
1271,27151,Swift,Minnesota,-95.68142838,45.2827261064,577.5736660730795
1272,27153,Todd,Minnesota,-94.8975993632,46.0706237641,591.6497783256278
1273,27155,Traverse,Minnesota,-96.4716413553,45.7721844848,517.3719073319385
1274,27157,Wabasha,Minnesota,-92.2302602596,44.2842861611,573.8705849971877
1275,27159,Wadena,Minnesota,-94.9694078336,46.5857615606,595.2785046920427
1276,27161,Waseca,Minnesota,-93.5872832229,44.0221236545,543.6460401591835
1277,27163,Washington,Minnesota,-92.883969287,45.0387533824,539.2941221247601
1278,27165,Watonwan,Minnesota,-94.6140606084,43.9784278928,561.1714154262734
1279,27167,Wilkin,Minnesota,-96.4683496086,46.3570765653,586.0518262405901
1280,27169,Winona,Minnesota,-91.779129433,43.9868496601,598.2427877467246
1281,27171,Wright,Minnesota,-93.9630531168,45.1739317274,549.3447160999664
1282,28001,Adams,Mississippi,-91.3534982605,31.482942855,595.8643720641005
1283,28003,Alcorn,Mississippi,-88.5802645599,34.8807714578,510.0274445019009
1284,28005,Amite,Mississippi,-90.8044314871,31.1743965268,508.7373473527302
1285,28007,Attala,Mississippi,-89.5815415958,33.0862934726,593.4386144376894
1286,28009,Benton,Mississippi,-89.1884754842,34.8172864604,554.4733265730891
1287,28011,Bolivar,Mississippi,-90.8804009104,33.7955389816,506.9080036066
1288,28013,Calhoun,Mississippi,-89.336445157,33.9364500127,503.1553341611272
1289,28015,Carroll,Mississippi,-89.9201976988,33.4485258506,545.7878402827824
1290,28017,Chickasaw,Mississippi,-88.9478637891,33.9207998598,525.4053660743082
1291,28019,Choctaw,Mississippi,-89.2483811971,33.347307069,556.3487552091183
1292,28021,Claiborne,Mississippi,-90.9118133348,31.9736926021,554.8826226213276
1293,28023,Clarke,Mississippi,-88.6894044448,32.0414016703,515.1229681831485
1294,28025,Clay,Mississippi,-88.7815761672,33.6556666121,516.723546346911
1295,28027,Coahoma,Mississippi,-90.602687016,34.2291655931,586.3543720182333
1296,28029,Copiah,Mississippi,-90.448798677,31.8692373987,569.3248268454372
1297,28031,Covington,Mississippi,-89.5526288201,31.6332182103,518.8159345429493
1298,28033,DeSoto,Mississippi,-89.9917699831,34.8753989481,586.6400142306045
1299,28035,Forrest,Mississippi,-89.2578597971,31.1888694049,512.620776917591
1300,28037,Franklin,Mississippi,-90.8978501232,31.477145332,534.3544143000386
1301,28039,George,Mississippi,-88.6440346093,30.8626068236,517.3848036340236
1302,28041,Greene,Mississippi,-88.6391629414,31.2142247537,586.9354907705256
1303,28043,Grenada,Mississippi,-89.8020061532,33.7699538621,591.0501535510075
1304,28045,Hancock,Mississippi,-89.4745620917,30.3937798122,537.4941538317656
1305,28047,Harrison,Mississippi,-89.081642685,30.4160496685,528.2929001013775
1306,28049,Hinds,Mississippi,-90.4428211702,32.2667019192,585.4310492906088
1307,28051,Holmes,Mississippi,-90.0920506122,33.1235144947,570.8363190320358
1308,28053,Humphreys,Mississippi,-90.5266210224,33.12869729,550.3708391357135
1309,28055,Issaquena,Mississippi,-90.9892124114,32.7413905566,597.9716663735392
1310,28057,Itawamba,Mississippi,-88.3613228409,34.2799867489,593.8690398437461
1311,28059,Jackson,Mississippi,-88.6228415765,30.4628875802,523.9301703210392
1312,28061,Jasper,Mississippi,-89.1188598215,32.0191127391,539.6319419933759
1313,28063,Jefferson,Mississippi,-91.0371787166,31.7342053896,551.104841825002
1314,28065,Jefferson,Mississippi,-91.0371787166,31.7342053896,556.0051869078534
1315,28067,Jones,Mississippi,-89.1687933116,31.6225588057,548.4505125636601
1316,28069,Kemper,Mississippi,-88.6411594239,32.7545579307,567.0528043722101
1317,28071,Lafayette,Mississippi,-89.4849192699,34.356757808,530.7271694064661
1318,28073,Lamar,Mississippi,-89.5086725366,31.2060330455,521.344614883312
1319,28075,Lauderdale,Mississippi,-88.662541529,32.4042861987,591.9094410892324
1320,28077,Lawrence,Mississippi,-90.1069711692,31.5502158141,527.2759797175097
1321,28079,Leake,Mississippi,-89.5240158465,32.7535170026,586.5505249742203
1322,28081,Lee,Mississippi,-88.6804161511,34.2898880686,563.3845699467485
1323,28083,Leflore,Mississippi,-90.3010646863,33.5505241007,598.7362425312215
1324,28085,Lincoln,Mississippi,-90.4539712434,31.5323843939,513.4655087810904
1325,28087,Lowndes,Mississippi,-88.4433134871,33.4729092689,556.8521390585911
1326,28089,Madison,Mississippi,-90.0337143493,32.6347102394,512.4406451870865
1327,28091,Marion,Mississippi,-89.8224429891,31.2308171304,596.5844577652321
1328,28093,Marshall,Mississippi,-89.503056435,34.7622655092,545.4632194139307
1329,28095,Monroe,Mississippi,-88.4804669083,33.8922415035,524.4182565597005
1330,28097,Montgomery,Mississippi,-89.6163956957,33.4941024198,565.1895520007384
1331,28099,Neshoba,Mississippi,-89.1175728285,32.7534965705,500.38262172540567
1332,28101,Newton,Mississippi,-89.1188085187,32.4002323469,597.1133279573149
1333,28103,Noxubee,Mississippi,-88.5698161858,33.110112782,550.9178243360186
1334,28105,Oktibbeha,Mississippi,-88.8793051624,33.4249531354,503.8961584178895
1335,28107,Panola,Mississippi,-89.9505672784,34.3639350883,572.4807476129557
1336,28111,Perry,Mississippi,-88.9923282776,31.1720242681,595.0311515696658
1337,28113,Pike,Mississippi,-90.4041605467,31.1749078562,553.8964393887255
1338,28115,Pontotoc,Mississippi,-89.0374096749,34.2254421511,552.8527960831871
1339,28117,Prentiss,Mississippi,-88.5200953248,34.6182874723,536.324735075614
1340,28119,Quitman,Mississippi,-90.2891244706,34.2514096075,521.4089382565596
1341,28121,Rankin,Mississippi,-89.9457980719,32.2641243634,557.9279257667863
1342,28123,Scott,Mississippi,-89.5376379602,32.4063798664,555.8648781421805
1343,28125,Sharkey,Mississippi,-90.8132149241,32.8797230696,505.60861129722787
1344,28127,Simpson,Mississippi,-89.9194880948,31.9131719625,530.8795504937615
1345,28129,Smith,Mississippi,-89.506677525,32.0176929287,530.2349991713803
1346,28131,Stone,Mississippi,-89.1177101979,30.789951647,533.1832411180486
1347,28133,Sunflower,Mississippi,-90.5886186268,33.6023128883,526.1831595904421
1348,28135,Tallahatchie,Mississippi,-90.1732642352,33.9504748127,578.8768713481633
1349,28137,Tate,Mississippi,-89.9447795242,34.650325267,592.2721989951659
1350,28139,Tippah,Mississippi,-88.9088980221,34.7684002341,504.0231272492264
1351,28141,Tishomingo,Mississippi,-88.2393231398,34.7404337635,551.8659226273654
1352,28143,Tunica,Mississippi,-90.3754987097,34.6519495513,548.8918694485751
1353,28145,Union,Mississippi,-89.00385691,34.4904742327,500.38725596516593
1354,28147,Walthall,Mississippi,-90.1061367548,31.1484222352,529.1129297559137
1355,28149,Warren,Mississippi,-90.852011211,32.3572296163,532.5367625105265
1356,28151,Washington,Mississippi,-90.9474546435,33.2836981018,520.8579906982136
1357,28153,Wayne,Mississippi,-88.6957976971,31.6407805038,515.54700635304
1358,28155,Webster,Mississippi,-89.2848255762,33.6130681109,567.5472498450862
1359,28157,Wilkinson,Mississippi,-91.3109179158,31.1610674632,516.7588378742973
1360,28159,Winston,Mississippi,-89.0344291744,33.0884910001,591.4012776520245
1361,28161,Yalobusha,Mississippi,-89.7076318397,34.028211563,552.8325323340304
1362,28163,Yazoo,Mississippi,-90.3964479749,32.7803142142,538.6451561165966
1363,29001,Adair,Missouri,-92.6007190462,40.1905621824,500.4519059047748
1364,29003,Andrew,Missouri,-94.8020598986,39.9835107818,592.4952471109466
1365,29005,Atchison,Missouri,-95.4280934716,40.4308475737,538.9580699280804
1366,29007,Audrain,Missouri,-91.84158588,39.2157556331,554.4041141143375
